stop_id,stop_code,stop_name,stop_lat,stop_lon,latlng
243,243,Rio Grande/15th,30.278965999999997,-97.746339,"30.278965999999997,-97.746339"
466,466,8740 Lamar/Payton Gin,30.356809000000002,-97.701066,"30.356809000000002,-97.701066"
467,467,Fairfield Station (SB),30.355296000000003,-97.703128,"30.355296000000003,-97.703128"
468,468,Lamar/Thurmond,30.353139000000002,-97.706082,"30.353139000000002,-97.706082"
469,469,8320 Lamar/Meadowlark,30.352256,-97.707295,"30.352256,-97.707295"
471,471,7720 Lamar/Stobaugh,30.346044,-97.713966,"30.346044,-97.713966"
472,472,7520 Lamar/Morrow,30.343163,-97.715653,"30.343163,-97.715653"
474,474,6814 Lamar/Justin,30.336204,-97.72000600000001,"30.336204,-97.72000600000001"
475,475,6600 Lamar/Brentwood,30.334109,-97.721322,"30.334109,-97.721322"
476,476,6200 Lamar/Denson,30.330425,-97.723636,"30.330425,-97.723636"
480,480,5528 Lamar/Koenig,30.324246999999996,-97.727528,"30.324246999999996,-97.727528"
483,483,5106 Lamar/51st,30.319051,-97.730805,"30.319051,-97.730805"
484,484,Triangle Station (SB),30.314629999999998,-97.732523,"30.314629999999998,-97.732523"
485,485,4500 Guadalupe/45th,30.311163,-97.732958,"30.311163,-97.732958"
486,486,Guadalupe/43rd Street,30.308831,-97.73439499999999,"30.308831,-97.73439499999999"
487,487,Guadalupe/41st Street,30.306703000000002,-97.73575600000001,"30.306703000000002,-97.73575600000001"
489,489,Guadalupe/Maiden,30.301674,-97.73895999999999,"30.301674,-97.73895999999999"
490,490,Guadalupe/34th Street,30.300456,-97.73970899999999,"30.300456,-97.73970899999999"
494,494,Guadalupe/27th Street,30.292196999999998,-97.74131,"30.292196999999998,-97.74131"
497,497,UT West Mall Station (SB),30.286064,-97.741815,"30.286064,-97.741815"
498,498,Guadalupe/W. 21st Street,30.283384,-97.742081,"30.283384,-97.742081"
501,501,Guadalupe/16th Street,30.278962,-97.742708,"30.278962,-97.742708"
506,506,11th/Congress,30.2727,-97.741376,"30.2727,-97.741376"
517,517,612 Congress/Riverside,30.255384999999997,-97.747685,"30.255384999999997,-97.747685"
522,522,2020 Congress/Crockett,30.243058,-97.752263,"30.243058,-97.752263"
524,524,2300 Congress/College,30.240333000000003,-97.752905,"30.240333000000003,-97.752905"
526,526,2622 Congress/Cumberland,30.235695,-97.756374,"30.235695,-97.756374"
527,527,2918 Congress/La Vista,30.232590000000002,-97.75853000000001,"30.232590000000002,-97.75853000000001"
529,529,Congress/Pickle,30.226896000000004,-97.761935,"30.226896000000004,-97.761935"
531,531,4210 Congress/Radam,30.220763,-97.765411,"30.220763,-97.765411"
543,543,4722 Congress/Sheraton,30.214747999999997,-97.76923199999999,"30.214747999999997,-97.76923199999999"
545,545,5300 Congress/Ramble,30.208685,-97.773108,"30.208685,-97.773108"
548,548,6220 Congress/North Bluff,30.199040999999998,-97.776595,"30.199040999999998,-97.776595"
550,550,115 William Cannon/Circle S,30.192664,-97.77784100000001,"30.192664,-97.77784100000001"
551,551,409 William Cannon/Circle S,30.192082,-97.776037,"30.192082,-97.776037"
552,552,601 William Cannon/Circle S,30.191387,-97.77353000000001,"30.191387,-97.77353000000001"
553,553,Nelms/Bluff Springs,30.192738000000002,-97.765327,"30.192738000000002,-97.765327"
554,554,Bluff Springs/William Cannon,30.189427000000002,-97.76787900000001,"30.189427000000002,-97.76787900000001"
555,555,412 William Cannon/North Bluff,30.191772999999998,-97.774139,"30.191772999999998,-97.774139"
556,556,110 William Cannon/Circle S,30.192971000000004,-97.777955,"30.192971000000004,-97.777955"
558,558,6319 Congress/Circle S,30.197391999999997,-97.77690799999999,"30.197391999999997,-97.77690799999999"
559,559,Little Texas Station (NB),30.202145,-97.775515,"30.202145,-97.775515"
560,560,5405 Congress/Mockingbird,30.207107,-97.773733,"30.207107,-97.773733"
568,568,Congress/Alpine,30.228247999999997,-97.76094300000001,"30.228247999999997,-97.76094300000001"
571,571,2705 Congress/Cumberland,30.235346999999997,-97.75633,"30.235346999999997,-97.75633"
573,573,2203 Congress/Live Oak,30.241689,-97.752423,"30.241689,-97.752423"
574,574,1901 Congress/Mary,30.245024,-97.751212,"30.245024,-97.751212"
576,576,Congress/The Circle,30.251531,-97.748789,"30.251531,-97.748789"
577,577,611 Congress/Academy,30.255340000000004,-97.74739,"30.255340000000004,-97.74739"
590,590,Lavaca/12th,30.274408,-97.742995,"30.274408,-97.742995"
591,591,Capitol Station (NB),30.275586999999998,-97.742558,"30.275586999999998,-97.742558"
593,593,Lavaca/15th,30.277383,-97.74189399999999,"30.277383,-97.74189399999999"
599,599,Guadalupe/Dean Keeton,30.289566999999998,-97.741302,"30.289566999999998,-97.741302"
603,603,31st Street Station (NB),30.297781,-97.741153,"30.297781,-97.741153"
604,604,Guadalupe/34th,30.300639,-97.739393,"30.300639,-97.739393"
605,605,Guadalupe/38th,30.302526,-97.738152,"30.302526,-97.738152"
606,606,Hyde Park Station (NB),30.304418,-97.73695,"30.304418,-97.73695"
607,607,Guadalupe/41st,30.306234000000003,-97.735787,"30.306234000000003,-97.735787"
608,608,Guadalupe/43rd,30.3085,-97.73434,"30.3085,-97.73434"
609,609,4413 Guadalupe/45th,30.31073,-97.73293000000001,"30.31073,-97.73293000000001"
610,610,Triangle Station (NB),30.314815999999997,-97.732264,"30.314815999999997,-97.732264"
611,611,5007 Lamar/51st,30.318410999999998,-97.730947,"30.318410999999998,-97.730947"
612,612,North Loop East Station (NB),30.321319,-97.729097,"30.321319,-97.729097"
613,613,5419 Lamar/Nelray,30.322779999999998,-97.72819,"30.322779999999998,-97.72819"
614,614,5555 Lamar/Nelray,30.324085999999998,-97.727368,"30.324085999999998,-97.727368"
617,617,6201 Lamar/Denson,30.330181,-97.72353299999999,"30.330181,-97.72353299999999"
618,618,6541 Lamar/Brentwood,30.33387,-97.72121,"30.33387,-97.72121"
620,620,7240 Lamar/St Johns,30.339956,-97.71769,"30.339956,-97.71769"
622,622,7545 Lamar/Morrow,30.34385,-97.71491999999999,"30.34385,-97.71491999999999"
623,623,8071 Lamar/Research,30.348283000000002,-97.711558,"30.348283000000002,-97.711558"
624,624,8415 Lamar/Thurmond,30.353121,-97.70573,"30.353121,-97.70573"
627,627,8745 Lamar/Deen,30.356405,-97.70124,"30.356405,-97.70124"
628,628,8911 Lamar/Carpenter,30.358138,-97.699627,"30.358138,-97.699627"
634,634,3200 Oak Springs/Airport,30.273609999999998,-97.69835,"30.273609999999998,-97.69835"
635,635,Oak Springs/Ridgeway,30.272555999999998,-97.70456800000001,"30.272555999999998,-97.70456800000001"
637,637,2420 Rosewood/Bedford,30.272319,-97.70829599999999,"30.272319,-97.70829599999999"
638,638,2370 Rosewood/Hargrave,30.271236,-97.710649,"30.271236,-97.710649"
642,642,Rosewood/San Bernard,30.268756,-97.725507,"30.268756,-97.725507"
657,657,907 11th/Branch,30.269859999999998,-97.731241,"30.269859999999998,-97.731241"
658,658,11th/Waller,30.269271000000003,-97.729681,"30.269271000000003,-97.729681"
660,660,1213 Rosewood/San Bernard,30.26853,-97.726049,"30.26853,-97.726049"
661,661,1319 Rosewood/Angelina,30.26878,-97.72446,"30.26878,-97.72446"
663,663,1909 Rosewood/Chicon,30.269696000000003,-97.718601,"30.269696000000003,-97.718601"
664,664,Rosewood/Northwestern,30.27,-97.71674,"30.27,-97.71674"
665,665,2365 Rosewood/Hargrave,30.270988,-97.71088,"30.270988,-97.71088"
666,666,Rosewood/Webberville,30.272357,-97.70514399999999,"30.272357,-97.70514399999999"
667,667,2807 Oak Springs/Webberville,30.272787,-97.702321,"30.272787,-97.702321"
668,668,3201 Oak Springs/Airport,30.273484000000003,-97.698127,"30.273484000000003,-97.698127"
669,669,Oak Springs/Springdale,30.273534,-97.691296,"30.273534,-97.691296"
674,674,Northcross Transfer Center,30.353609999999996,-97.73592,"30.353609999999996,-97.73592"
675,675,7500 Burnet/Richcreek,30.350659999999998,-97.734362,"30.350659999999998,-97.734362"
678,678,Burnet/Twin Oaks Dr.,30.342693,-97.738671,"30.342693,-97.738671"
684,684,North Loop Station (SB),30.324999,-97.739681,"30.324999,-97.739681"
685,685,Burnet/Hancock,30.322213,-97.739436,"30.322213,-97.739436"
686,686,Burnet/W. 49th,30.320333,-97.739313,"30.320333,-97.739313"
687,687,Burnet/W. 47th,30.318126,-97.739952,"30.318126,-97.739952"
688,688,Burnet/W. 45th,30.315528000000004,-97.741621,"30.315528000000004,-97.741621"
689,689,4214 Medical Parkway/43rd,30.312473999999998,-97.74237099999999,"30.312473999999998,-97.74237099999999"
690,690,4112 Medical Parkway/42nd,30.310901,-97.742667,"30.310901,-97.742667"
691,691,Medical Pkwy/W. 40th,30.308566,-97.742745,"30.308566,-97.742745"
695,695,3120 Lamar/32nd,30.301236,-97.74574,"30.301236,-97.74574"
716,716,800 Cesar Chavez/West,30.265741,-97.75240600000001,"30.265741,-97.75240600000001"
717,717,B R Reynolds/Lamar,30.267402,-97.756576,"30.267402,-97.756576"
722,722,1414 Lamar/Cinco,30.252465,-97.764114,"30.252465,-97.764114"
728,728,2806 Menchaca/Lightsey,30.243035,-97.781628,"30.243035,-97.781628"
729,729,3204 Menchaca/Glen Allen,30.240345,-97.78224200000001,"30.240345,-97.78224200000001"
730,730,3624 Menchaca/Larchmont,30.237452,-97.783568,"30.237452,-97.783568"
732,732,3906 Menchaca/Prather,30.233969000000002,-97.785765,"30.233969000000002,-97.785765"
733,733,4308 Menchaca/Ben White,30.230503999999996,-97.788112,"30.230503999999996,-97.788112"
734,734,4430 Menchaca/Redd,30.228464000000002,-97.78938000000001,"30.228464000000002,-97.78938000000001"
735,735,4616 Menchaca/Forest Hill,30.225990999999997,-97.79091600000001,"30.225990999999997,-97.79091600000001"
736,736,4804 Menchaca/Frontier,30.223743,-97.79234699999999,"30.223743,-97.79234699999999"
737,737,5000 Menchaca/Jones,30.220975,-97.794067,"30.220975,-97.794067"
739,739,5322 Menchaca/Inverness,30.217803000000004,-97.79599499999999,"30.217803000000004,-97.79599499999999"
740,740,5532 Menchaca/Stassney,30.216058,-97.797163,"30.216058,-97.797163"
742,742,5720 Menchaca/Whitestone,30.214391,-97.79951899999999,"30.214391,-97.79951899999999"
743,743,6212 Menchaca/Berkett,30.210671,-97.803629,"30.210671,-97.803629"
744,744,6372 Menchaca/Berkeley,30.208952000000004,-97.804711,"30.208952000000004,-97.804711"
745,745,6514 Menchaca/Miles,30.207078000000003,-97.80593,"30.207078000000003,-97.80593"
746,746,Menchaca/William Cannon SW Corner,30.202030999999998,-97.807163,"30.202030999999998,-97.807163"
750,750,Menchaca/William Cannon SE Corner,30.202687,-97.806816,"30.202687,-97.806816"
751,751,6601 Menchaca/Miles,30.206901000000002,-97.805837,"30.206901000000002,-97.805837"
752,752,6305 Menchaca/Berkeley,30.209018,-97.804497,"30.209018,-97.804497"
754,754,6001 Menchaca/Independence,30.212809999999998,-97.80188299999999,"30.212809999999998,-97.80188299999999"
755,755,5701 Menchaca/Whitestone,30.214491,-97.798856,"30.214491,-97.798856"
758,758,5309 Menchaca/Fair Oaks,30.219059,-97.79499799999999,"30.219059,-97.79499799999999"
764,764,4301 Menchaca/Fort View,30.230859999999996,-97.787599,"30.230859999999996,-97.787599"
765,765,3909 Menchaca/Prather,30.234049,-97.785514,"30.234049,-97.785514"
767,767,3505 Menchaca/Larchmont,30.238295,-97.782915,"30.238295,-97.782915"
768,768,3201 Menchaca/Glen Allen,30.240512,-97.782084,"30.240512,-97.782084"
771,771,2639 Lamar/Dickson,30.245377,-97.77969300000001,"30.245377,-97.77969300000001"
772,772,2401 Lamar/Bluebonnet,30.246752,-97.777395,"30.246752,-97.777395"
773,773,2201 Lamar/Kinney,30.247279,-97.77427800000001,"30.247279,-97.77427800000001"
776,776,1417 Lamar/Cinco,30.252289,-97.763972,"30.252289,-97.763972"
777,777,Lamar Square Station (NB),30.254034000000004,-97.762592,"30.254034000000004,-97.762592"
781,781,Barton Springs Station (NB),30.261634,-97.758053,"30.261634,-97.758053"
806,806,3105 Lamar/31st,30.30053,-97.745954,"30.30053,-97.745954"
807,807,3317 Lamar/34th,30.302553000000003,-97.744683,"30.302553000000003,-97.744683"
809,809,38th/Medical Pkwy,30.305685999999998,-97.743879,"30.305685999999998,-97.743879"
811,811,Medical Pkwy/41st,30.309731,-97.742576,"30.309731,-97.742576"
813,813,Medical Pkwy/44th,30.314054,-97.741916,"30.314054,-97.741916"
814,814,Burnet/45th,30.316,-97.741026,"30.316,-97.741026"
815,815,Burnet/49th,30.320494,-97.739145,"30.320494,-97.739145"
816,816,5011 Burnet/Hancock,30.321765999999997,-97.739242,"30.321765999999997,-97.739242"
817,817,North Loop Station (NB),30.326284,-97.739566,"30.326284,-97.739566"
819,819,Burnet/Houston,30.328765999999998,-97.739742,"30.328765999999998,-97.739742"
820,820,Burnet/Adams,30.330446000000002,-97.739876,"30.330446000000002,-97.739876"
821,821,5621 Burnet/Northland,30.332384,-97.739997,"30.332384,-97.739997"
822,822,Allandale Station (NB),30.3342,-97.7398,"30.3342,-97.7398"
824,824,6425 Burnet/Whitehorse,30.33997,-97.7389,"30.33997,-97.7389"
826,826,Justin Station (NB),30.345183000000002,-97.73755,"30.345183000000002,-97.73755"
827,827,Burnet/Greenlawn Pkwy,30.348509999999997,-97.73545,"30.348509999999997,-97.73545"
828,828,7439 Burnet/Richcreek,30.3504,-97.73424,"30.3504,-97.73424"
829,829,Northcross Station (NB),30.353858000000002,-97.73208100000001,"30.353858000000002,-97.73208100000001"
830,830,Northcross Mall,30.355782,-97.734268,"30.355782,-97.734268"
831,831,ACC Riverside Campus Stop,30.236201,-97.70484599999999,"30.236201,-97.70484599999999"
832,832,Hogan/Community,30.236459000000004,-97.701552,"30.236459000000004,-97.701552"
834,834,1214 Montopolis/Larch,30.232434,-97.698769,"30.232434,-97.698769"
847,847,2700 7th/Calles,30.260665000000003,-97.71152099999999,"30.260665000000003,-97.71152099999999"
848,848,2500 7th/Pedernales,30.260963,-97.71356,"30.260963,-97.71356"
863,863,11th/San Jacinto SW Corner,30.272,-97.73883599999999,"30.272,-97.73883599999999"
864,864,Trinity/12th,30.272709000000003,-97.73715,"30.272709000000003,-97.73715"
866,866,Trinity/17th,30.277788,-97.735271,"30.277788,-97.735271"
870,870,1509 Martin Luther King/Comal,30.279073999999998,-97.724701,"30.279073999999998,-97.724701"
872,872,1813 Martin Luther King/Chicon,30.279695,-97.721372,"30.279695,-97.721372"
873,873,2207 Martin Luther King/Ferdinand,30.28023,-97.718137,"30.28023,-97.718137"
874,874,2401 Martin Luther King/Maple,30.280586,-97.715949,"30.280586,-97.715949"
875,875,2615 Martin Luther King/Walnut,30.280972,-97.713458,"30.280972,-97.713458"
877,877,2915 Martin Luther King/Clifford,30.281869,-97.707799,"30.281869,-97.707799"
878,878,2945 Martin Luther King/Harvey,30.282207,-97.70565,"30.282207,-97.70565"
880,880,3431 Martin Luther King/Greenwood,30.283317999999998,-97.698197,"30.283317999999998,-97.698197"
881,881,3601 Martin Luther King/EM Franklin,30.283699,-97.695712,"30.283699,-97.695712"
882,882,3815 Martin Luther King/Perez,30.284090999999997,-97.693161,"30.284090999999997,-97.693161"
886,886,Martin Luther King/Springdale,30.285690000000002,-97.68292,"30.285690000000002,-97.68292"
898,898,4600 Martin Luther King/Springdale,30.285994,-97.68224599999999,"30.285994,-97.68224599999999"
902,902,3900 Martin Luther King/Perez,30.284342,-97.69295100000001,"30.284342,-97.69295100000001"
905,905,3300 Martin Luther King/Tillery,30.283021999999995,-97.701544,"30.283021999999995,-97.701544"
909,909,2700 Martin Luther King/Walnut,30.281129999999997,-97.713317,"30.281129999999997,-97.713317"
910,910,2300 Martin Luther King/Chestnut,30.280549,-97.717136,"30.280549,-97.717136"
911,911,1900 Martin Luther King/Chicon,30.279877000000003,-97.721101,"30.279877000000003,-97.721101"
912,912,1700 Martin Luther King/Leona,30.279502,-97.723095,"30.279502,-97.723095"
913,913,1498 Martin Luther King/Comal,30.279075,-97.725602,"30.279075,-97.725602"
916,916,San Jacinto/17th,30.278165,-97.736503,"30.278165,-97.736503"
919,919,San Jacinto/14th,30.275451,-97.737526,"30.275451,-97.737526"
921,921,San Jacinto/12th,30.273386,-97.73828,"30.273386,-97.73828"
922,922,San Jacinto/11th,30.272213,-97.738718,"30.272213,-97.738718"
928,928,IH-35/East 7th,30.266895,-97.735299,"30.266895,-97.735299"
929,929,7th/San Marcos,30.265971,-97.732268,"30.265971,-97.732268"
931,931,7th/Navasota,30.264583000000002,-97.728178,"30.264583000000002,-97.728178"
934,934,Chicon/East 7th,30.262511,-97.722327,"30.262511,-97.722327"
935,935,7th/Robert T Martinez Jr,30.261532,-97.718195,"30.261532,-97.718195"
936,936,2425 7th/Pedernales,30.260851000000002,-97.713904,"30.260851000000002,-97.713904"
937,937,2621 7th/Calles,30.260533000000002,-97.711831,"30.260533000000002,-97.711831"
938,938,2789 7th/Pleasant Valley,30.260046000000003,-97.709625,"30.260046000000003,-97.709625"
939,939,3223 7th/Allen,30.257758000000003,-97.704514,"30.257758000000003,-97.704514"
940,940,3535 7th/Springdale,30.256025,-97.701819,"30.256025,-97.701819"
942,942,5021 7th/Shady,30.253396999999996,-97.697886,"30.253396999999996,-97.697886"
944,944,618 Vargas/Ponca,30.235736,-97.692557,"30.235736,-97.692557"
950,950,6306 Riverside/Montopolis,30.224996,-97.703124,"30.224996,-97.703124"
951,951,6000 Riverside/Clubview,30.226585999999998,-97.706711,"30.226585999999998,-97.706711"
953,953,1101 Grove (ACC Riverside),30.235008,-97.70417900000001,"30.235008,-97.70417900000001"
954,954,2007 Anderson/Burnet,30.354471999999998,-97.727616,"30.354471999999998,-97.727616"
956,956,Woodrow/Anderson,30.35245,-97.7234,"30.35245,-97.7234"
958,958,Woodrow/Princeton,30.349882,-97.723185,"30.349882,-97.723185"
960,960,Woodrow/Richcreek,30.346068,-97.724799,"30.346068,-97.724799"
962,962,7100 Woodrow/Piedmont,30.342980999999998,-97.725124,"30.342980999999998,-97.725124"
963,963,7000 Woodrow/Cullen,30.341521999999998,-97.725904,"30.341521999999998,-97.725904"
964,964,6800 Woodrow/Choquette,30.339208000000003,-97.727376,"30.339208000000003,-97.727376"
965,965,6600 Woodrow/Brentwood,30.337479,-97.728461,"30.337479,-97.728461"
966,966,Woodrow/Payne,30.335922999999998,-97.729446,"30.335922999999998,-97.729446"
967,967,Woodrow/Romeria,30.333637,-97.730682,"30.333637,-97.730682"
968,968,5900 Woodrow/Koenig,30.331024,-97.7316,"30.331024,-97.7316"
969,969,5626 Woodrow/Theckla,30.328865999999998,-97.732957,"30.328865999999998,-97.732957"
970,970,5500 Woodrow/Houston,30.326461,-97.734505,"30.326461,-97.734505"
971,971,5300 Woodrow/North Loop,30.324296,-97.735849,"30.324296,-97.735849"
972,972,5200 Woodrow/North,30.322571000000003,-97.73695500000001,"30.322571000000003,-97.73695500000001"
973,973,1215 51st/Grover,30.320538,-97.735873,"30.320538,-97.735873"
974,974,1143 49th/Grover,30.318547,-97.736463,"30.318547,-97.736463"
977,977,909 45th/Lamar,30.31298,-97.736887,"30.31298,-97.736887"
978,978,507 45th/Guadalupe,30.310607,-97.732618,"30.310607,-97.732618"
979,979,301 45th/Avenue C,30.309534999999997,-97.73039200000001,"30.309534999999997,-97.73039200000001"
980,980,Speedway/45th,30.30835,-97.728674,"30.30835,-97.728674"
981,981,4300 Speedway/43rd,30.306696999999996,-97.729732,"30.306696999999996,-97.729732"
982,982,4004 Speedway/40th,30.303497999999998,-97.731786,"30.303497999999998,-97.731786"
983,983,3812 Speedway/38th Half,30.301379999999998,-97.733132,"30.301379999999998,-97.733132"
985,985,3204 Speedway/33rd,30.29713,-97.735816,"30.29713,-97.735816"
993,993,Cesar Chavez/Brazos,30.262969000000002,-97.743365,"30.262969000000002,-97.743365"
995,995,515 Cesar Chavez/Red River,30.261712,-97.73893199999999,"30.261712,-97.73893199999999"
999,999,Riverside/Summit,30.245976000000002,-97.731836,"30.245976000000002,-97.731836"
1002,1002,Riverside/Burton,30.240340999999997,-97.727308,"30.240340999999997,-97.727308"
1003,1003,2237 Riverside/Willow Creek,30.238275,-97.726015,"30.238275,-97.726015"
1005,1005,2507 Riverside/Pleasant Valley,30.233867,-97.72376,"30.233867,-97.72376"
1008,1008,4411 Oltorf/Huntwick,30.226619,-97.72626,"30.226619,-97.72626"
1009,1009,2401 Wickersham/Oltorf,30.226039,-97.723488,"30.226039,-97.723488"
1010,1010,Wickersham/Cromwell,30.227021,-97.721847,"30.227021,-97.721847"
1011,1011,2207 Wickersham/Sheringham,30.229315000000003,-97.72135300000001,"30.229315000000003,-97.72135300000001"
1013,1013,4825 Riverside/Kirksey,30.231315999999996,-97.71704100000001,"30.231315999999996,-97.71704100000001"
1014,1014,5100 Riverside/Riverside Farms,30.230355,-97.714648,"30.230355,-97.714648"
1015,1015,5401 Riverside/Faro,30.229169,-97.712324,"30.229169,-97.712324"
1016,1016,5500 Riverside/Penick,30.228277000000002,-97.710766,"30.228277000000002,-97.710766"
1017,1017,Ruiz Library,30.229539000000003,-97.706558,"30.229539000000003,-97.706558"
1018,1018,Riverside/Faro,30.229833000000003,-97.712898,"30.229833000000003,-97.712898"
1020,1020,4900 Riverside/Crossing Place,30.23136,-97.71637,"30.23136,-97.71637"
1021,1021,4823 Riverside/Crossing Place,30.231928000000003,-97.717861,"30.231928000000003,-97.717861"
1022,1022,2100 Wickersham/Riverside,30.231526000000002,-97.720884,"30.231526000000002,-97.720884"
1023,1023,Wickersham/Sheringham,30.229914,-97.72149300000001,"30.229914,-97.72149300000001"
1024,1024,2300 Wickersham/Cromwell,30.227534000000002,-97.721731,"30.227534000000002,-97.721731"
1025,1025,2440 Wickersham/Oltorf,30.226083000000003,-97.723784,"30.226083000000003,-97.723784"
1027,1027,2433 Pleasant Valley/Oltorf,30.228028000000002,-97.727241,"30.228028000000002,-97.727241"
1028,1028,2209 Pleasant Valley/Sheringham,30.231097,-97.72529899999999,"30.231097,-97.72529899999999"
1029,1029,2426 Riverside/Pleasant Valley,30.235706,-97.72437,"30.235706,-97.72437"
1030,1030,Riverside/Willow Creek,30.238065000000002,-97.725635,"30.238065000000002,-97.725635"
1032,1032,Riverside/Town Creek,30.24114,-97.727591,"30.24114,-97.727591"
1033,1033,Riverside/Shore District,30.242867999999998,-97.728889,"30.242867999999998,-97.728889"
1034,1034,1600 Riverside/Summit,30.246505,-97.73196899999999,"30.246505,-97.73196899999999"
1038,1038,400 Cesar Chavez/Trinity,30.262459999999997,-97.74084,"30.262459999999997,-97.74084"
1042,1042,2231 Guadalupe/West Mall UT,30.285738000000002,-97.741618,"30.285738000000002,-97.741618"
1049,1049,Speedway/35th,30.299217,-97.734341,"30.299217,-97.734341"
1051,1051,Speedway/39th,30.301591,-97.732825,"30.301591,-97.732825"
1053,1053,4301 Speedway/43rd,30.306615999999998,-97.72961600000001,"30.306615999999998,-97.72961600000001"
1054,1054,108 45th Street/Avenue D,30.309112,-97.729235,"30.309112,-97.729235"
1055,1055,408 45th Street/Avenue A,30.310425,-97.73187800000001,"30.310425,-97.73187800000001"
1056,1056,636 45th/Guadalupe,30.31125,-97.733468,"30.31125,-97.733468"
1057,1057,918 45th/Lamar,30.313397,-97.737245,"30.313397,-97.737245"
1058,1058,Sunshine Station (NB),30.316434,-97.73571700000001,"30.316434,-97.73571700000001"
1059,1059,4801 Sunshine (Criss Cole Rehab),30.317382000000002,-97.735114,"30.317382000000002,-97.735114"
1060,1060,1100 49th/Grover,30.318790999999997,-97.73664699999999,"30.318790999999997,-97.73664699999999"
1061,1061,1200 51st/Grover,30.320707000000002,-97.735989,"30.320707000000002,-97.735989"
1062,1062,5113 Woodrow/North,30.322371,-97.736892,"30.322371,-97.736892"
1063,1063,5223 Woodrow/North Loop,30.324061,-97.735824,"30.324061,-97.735824"
1064,1064,5413 Woodrow/Houston,30.326186,-97.734482,"30.326186,-97.734482"
1065,1065,5515 Woodrow/Houston,30.327565000000003,-97.733603,"30.327565000000003,-97.733603"
1066,1066,5701 Woodrow/Theckla,30.329034000000004,-97.73267299999999,"30.329034000000004,-97.73267299999999"
1067,1067,5819 Woodrow/Koenig,30.330737,-97.73158000000001,"30.330737,-97.73158000000001"
1068,1068,Woodrow/Alguno,30.332811,-97.730682,"30.332811,-97.730682"
1069,1069,Woodrow/Alegria,30.334573,-97.73012800000001,"30.334573,-97.73012800000001"
1070,1070,6523 Woodrow/Brentwood,30.337279,-97.72842,"30.337279,-97.72842"
1072,1072,Woodrow/Dwyce,30.340171,-97.72659399999999,"30.340171,-97.72659399999999"
1074,1074,7115 Woodrow/Piedmont,30.342848999999998,-97.72498399999999,"30.342848999999998,-97.72498399999999"
1075,1075,Woodrow/Pasadena,30.344977,-97.72521,"30.344977,-97.72521"
1076,1076,Woodrow/Morrow,30.34743,-97.723761,"30.34743,-97.723761"
1077,1077,7717 Woodrow/Princeton,30.349890000000002,-97.72301999999999,"30.349890000000002,-97.72301999999999"
1078,1078,1700 Anderson/Wooten Park,30.352790000000002,-97.72362,"30.352790000000002,-97.72362"
1080,1080,Anderson/Mullen,30.35401,-97.72622,"30.35401,-97.72622"
1084,1084,4000 Tannehill/Jackie Robinson,30.276390000000003,-97.67603299999999,"30.276390000000003,-97.67603299999999"
1085,1085,Jackie Robinson/Delano,30.276588,-97.67835,"30.276588,-97.67835"
1089,1089,1420 Webberville/Fort Branch,30.27989,-97.681063,"30.27989,-97.681063"
1090,1090,Webberville/Ribbecke,30.279255,-97.683196,"30.279255,-97.683196"
1091,1091,12th/Webberville,30.278361,-97.685478,"30.278361,-97.685478"
1092,1092,4600 12th/Springdale,30.278940999999996,-97.68668199999999,"30.278940999999996,-97.68668199999999"
1093,1093,12th/Cometa,30.278639000000002,-97.689538,"30.278639000000002,-97.689538"
1094,1094,3522 12th/E M Franklin,30.277864,-97.694461,"30.277864,-97.694461"
1096,1096,3250 12th/Airport,30.276978000000003,-97.70017800000001,"30.276978000000003,-97.70017800000001"
1097,1097,3100 12th/McKinley,30.276653999999997,-97.702258,"30.276653999999997,-97.702258"
1098,1098,12th/Harvey,30.276346000000004,-97.70424,"30.276346000000004,-97.70424"
1099,1099,2900 12th/Alexander,30.275723,-97.708093,"30.275723,-97.708093"
1100,1100,2730 12th/New York,30.275351,-97.710464,"30.275351,-97.710464"
1101,1101,12th/Cedar,30.274879,-97.713399,"30.274879,-97.713399"
1102,1102,2204 12th/Chestnut,30.274390000000004,-97.716486,"30.274390000000004,-97.716486"
1103,1103,1914 12th/Chicon,30.273963000000002,-97.719142,"30.273963000000002,-97.719142"
1105,1105,1700 12th/Leona,30.273521000000002,-97.72187,"30.273521000000002,-97.72187"
1106,1106,1400 12th/Angelina,30.273059000000003,-97.7249,"30.273059000000003,-97.7249"
1107,1107,1220 12th/San Bernard,30.272727000000003,-97.726844,"30.272727000000003,-97.726844"
1109,1109,12th/IH-35,30.272088,-97.73084200000001,"30.272088,-97.73084200000001"
1114,1114,12th/Navasota,30.272434000000004,-97.72784399999999,"30.272434000000004,-97.72784399999999"
1118,1118,1819 12th/Chicon,30.273695,-97.720001,"30.273695,-97.720001"
1121,1121,2601 12th/Cedar,30.274815000000004,-97.712846,"30.274815000000004,-97.712846"
1122,1122,2733 12th/New York,30.275203,-97.710441,"30.275203,-97.710441"
1123,1123,2863 12th/Alexander,30.275533000000003,-97.708349,"30.275533000000003,-97.708349"
1124,1124,2917 12th/Hargrave,30.275868,-97.706343,"30.275868,-97.706343"
1125,1125,3021 12th/McKinley,30.276474,-97.702363,"30.276474,-97.702363"
1126,1126,3245 12th/Airport,30.276730999999998,-97.700547,"30.276730999999998,-97.700547"
1127,1127,3403 12th/Greenwood,30.277301,-97.697085,"30.277301,-97.697085"
1128,1128,3525 12th/E M Franklin,30.277721999999997,-97.694402,"30.277721999999997,-97.694402"
1130,1130,1201 Webberville/12th,30.278282,-97.68454399999999,"30.278282,-97.68454399999999"
1131,1131,1401 Webberville/Ribbecke,30.279405999999998,-97.682614,"30.279405999999998,-97.682614"
1132,1132,1419 Webberville/Fort Branch,30.279744,-97.680966,"30.279744,-97.680966"
1137,1137,3811 Tannehill/Jackie Robinson,30.276584000000003,-97.675697,"30.276584000000003,-97.675697"
1138,1138,4021 Tannehill/Samuel Huston,30.279192,-97.67397700000001,"30.279192,-97.67397700000001"
1141,1141,1200 Rundberg/Teasdale,30.354111,-97.681289,"30.354111,-97.681289"
1142,1142,Rundberg/Hansford,30.355636999999998,-97.68363000000001,"30.355636999999998,-97.68363000000001"
1143,1143,838 Rundberg/Middle Fiskville,30.357219,-97.685998,"30.357219,-97.685998"
1148,1148,Georgian/Home Pl.,30.355832,-97.696474,"30.355832,-97.696474"
1149,1149,Georgian/Elliott,30.353289,-97.699042,"30.353289,-97.699042"
1150,1150,Georgian/Jennifer,30.349752000000002,-97.702016,"30.349752000000002,-97.702016"
1151,1151,Georgian/Powell,30.347696999999997,-97.703234,"30.347696999999997,-97.703234"
1152,1152,8000 Georgian/Anderson,30.344902,-97.70465899999999,"30.344902,-97.70465899999999"
1153,1153,7700 Northcrest/Anderson,30.343359999999997,-97.705878,"30.343359999999997,-97.705878"
1156,1156,Crestland/Meadowview,30.339681,-97.711761,"30.339681,-97.711761"
1157,1157,7414 Guadalupe/Crestland,30.339901,-97.713146,"30.339901,-97.713146"
1158,1158,7106 Guadalupe/St Johns,30.337324,-97.714833,"30.337324,-97.714833"
1159,1159,Guadalupe/Swanee,30.335704999999997,-97.715903,"30.335704999999997,-97.715903"
1160,1160,105 Highland Mall/Jonathan,30.328490999999996,-97.713603,"30.328490999999996,-97.713603"
1164,1164,5600 Avenue F/56th,30.321167,-97.71899599999999,"30.321167,-97.71899599999999"
1168,1168,Duval/51st,30.314362,-97.719922,"30.314362,-97.719922"
1169,1169,Duval/48th,30.310968,-97.72212900000001,"30.310968,-97.72212900000001"
1171,1171,Duval/43rd,30.30438,-97.726357,"30.30438,-97.726357"
1172,1172,4002 Duval/41st,30.301674,-97.728038,"30.301674,-97.728038"
1174,1174,Duval/33rd,30.295648999999997,-97.731832,"30.295648999999997,-97.731832"
1175,1175,3200 Duval/32nd,30.294603000000002,-97.732495,"30.294603000000002,-97.732495"
1176,1176,Duval/30th,30.291876000000002,-97.734222,"30.291876000000002,-97.734222"
1177,1177,San Jacinto/Dean Keeton NW Corner,30.289599,-97.734686,"30.289599,-97.734686"
1178,1178,2324 San Jacinto/24th,30.28671,-97.733652,"30.28671,-97.733652"
1179,1179,2300 San Jacinto/23rd,30.285505999999998,-97.73378199999999,"30.285505999999998,-97.73378199999999"
1180,1180,2100 San Jacinto/21st,30.283362,-97.734165,"30.283362,-97.734165"
1186,1186,715 Riverside/Alameda,30.250734,-97.74061,"30.250734,-97.74061"
1187,1187,1005 East Riverside/Travis Heights,30.249589,-97.738348,"30.249589,-97.738348"
1188,1188,Riverside/Kenwood,30.248592,-97.736886,"30.248592,-97.736886"
1190,1190,1724 Burton/Woodland,30.236152,-97.728459,"30.236152,-97.728459"
1191,1191,1920 Burton/Mariposa,30.233860999999997,-97.731812,"30.233860999999997,-97.731812"
1193,1193,2310 Parker/Oltorf,30.231873999999998,-97.737285,"30.231873999999998,-97.737285"
1194,1194,2504 Parker/Braxton,30.229929,-97.738557,"30.229929,-97.738557"
1195,1195,2718 Parker/Royal Hill,30.227503999999996,-97.740505,"30.227503999999996,-97.740505"
1199,1199,Woodward/Ben White NW Corner,30.217146999999997,-97.74404200000001,"30.217146999999997,-97.74404200000001"
1202,1202,Freidrich/Directors,30.212493,-97.748209,"30.212493,-97.748209"
1203,1203,4600 Freidrich/St Elmo,30.208183000000002,-97.750908,"30.208183000000002,-97.750908"
1204,1204,Teri/Freidrich,30.202831,-97.753472,"30.202831,-97.753472"
1212,1212,5406 Pleasant Valley/Village,30.193289,-97.744743,"30.193289,-97.744743"
1213,1213,5802 Pleasant Valley/Leatherleaf,30.188889,-97.74554499999999,"30.188889,-97.74554499999999"
1214,1214,6100 Pleasant Valley/Dove Springs,30.185358,-97.745648,"30.185358,-97.745648"
1215,1215,6406 Pleasant Valley/Creek Bend,30.182114000000002,-97.74609699999999,"30.182114000000002,-97.74609699999999"
1219,1219,6107 Pleasant Valley/Turnstone,30.185198,-97.74519599999999,"30.185198,-97.74519599999999"
1220,1220,5803 Pleasant Valley/Village Square,30.188890999999998,-97.74529,"30.188890999999998,-97.74529"
1221,1221,5505 Pleasant Valley/Palo Blanco,30.192228999999998,-97.744496,"30.192228999999998,-97.744496"
1222,1222,4621 Stassney/Pleasant Valley,30.193067,-97.74450999999999,"30.193067,-97.74450999999999"
1223,1223,2522 Stassney/Chaparral,30.193919,-97.747016,"30.193919,-97.747016"
1224,1224,2408 Stassney/Palo Blanco,30.193714,-97.750685,"30.193714,-97.750685"
1228,1228,2008 Teri/Pepper,30.202365000000004,-97.752499,"30.202365000000004,-97.752499"
1229,1229,4801 Freidrich/Teri,30.204465999999996,-97.753036,"30.204465999999996,-97.753036"
1230,1230,4601 Freidrich/City Yard,30.208174,-97.75068399999999,"30.208174,-97.75068399999999"
1231,1231,4217 Freidrich/St Elmo,30.211335,-97.748705,"30.211335,-97.748705"
1232,1232,4115 Freidrich/Woodward,30.213484,-97.746116,"30.213484,-97.746116"
1233,1233,Woodward/Ben White SE Corner,30.215081,-97.744146,"30.215081,-97.744146"
1235,1235,1901 Woodward/Parker,30.219456,-97.743789,"30.219456,-97.743789"
1237,1237,3101 Parker/Wickshire,30.224517,-97.74215799999999,"30.224517,-97.74215799999999"
1238,1238,2801 Parker/Royal Hill,30.227381,-97.740387,"30.227381,-97.740387"
1239,1239,2501 Parker/Braxton,30.230144,-97.7382,"30.230144,-97.7382"
1240,1240,2301 Parker/Oltorf,30.232115999999998,-97.73693399999999,"30.232115999999998,-97.73693399999999"
1242,1242,2001 Burton/Mariposa,30.233411,-97.731925,"30.233411,-97.731925"
1243,1243,Burton/Valley Hill Cir.,30.23436,-97.730784,"30.23436,-97.730784"
1244,1244,1801 Burton/Woodland,30.235764,-97.72851,"30.235764,-97.72851"
1246,1246,1000 East Riverside/Travis Heights,30.249906,-97.73859399999999,"30.249906,-97.73859399999999"
1249,1249,150 Riverside/Newning,30.255868,-97.74546,"30.255868,-97.74546"
1253,1253,2031 San Jacinto/21st,30.283103999999998,-97.73391,"30.283103999999998,-97.73391"
1256,1256,2525 San Jacinto/Dean Keeton,30.288776000000002,-97.734397,"30.288776000000002,-97.734397"
1257,1257,Duval/Bellevue,30.292127,-97.733917,"30.292127,-97.733917"
1258,1258,Duval/32nd,30.293384000000003,-97.733108,"30.293384000000003,-97.733108"
1259,1259,Duval/Harris,30.29591,-97.73149000000001,"30.29591,-97.73149000000001"
1260,1260,3717 Duval/38th,30.298515000000002,-97.729831,"30.298515000000002,-97.729831"
1261,1261,4017 Duval/41st,30.30214,-97.727604,"30.30214,-97.727604"
1262,1262,Duval/Park,30.304132,-97.72635799999999,"30.304132,-97.72635799999999"
1263,1263,4433 Duval/45th,30.306896000000002,-97.724576,"30.306896000000002,-97.724576"
1264,1264,4533 Duval/45th,30.308301,-97.723678,"30.308301,-97.723678"
1265,1265,4803 Duval/48th Street,30.311173999999998,-97.721789,"30.311173999999998,-97.721789"
1267,1267,Duval/Bruning,30.314434999999996,-97.719695,"30.314434999999996,-97.719695"
1271,1271,5613 Avenue F/Koenig,30.321597999999998,-97.71873000000001,"30.321597999999998,-97.71873000000001"
1273,1273,6902 Airport Blvd/Guadalupe,30.333977,-97.716818,"30.333977,-97.716818"
1274,1274,Guadalupe/Kennistson,30.334694,-97.71637700000001,"30.334694,-97.71637700000001"
1275,1275,7125 Guadalupe/St Johns,30.337671000000004,-97.714427,"30.337671000000004,-97.714427"
1276,1276,7417 Guadalupe/Crestland,30.339996000000003,-97.712898,"30.339996000000003,-97.712898"
1278,1278,7601 Northcrest/Prairie Dell,30.340632,-97.708421,"30.340632,-97.708421"
1282,1282,Georgian/Red Oak,30.349494,-97.70200600000001,"30.349494,-97.70200600000001"
1283,1283,Georgian/Walnut,30.351297,-97.700509,"30.351297,-97.700509"
1284,1284,Georgian/Little Walnut,30.353431,-97.698728,"30.353431,-97.698728"
1285,1285,Georgian/Home Place,30.356009000000004,-97.696169,"30.356009000000004,-97.696169"
1286,1286,9013 Georgian/Fawnridge,30.358121999999998,-97.69480899999999,"30.358121999999998,-97.69480899999999"
1289,1289,307 Rundberg/North Creek,30.360039,-97.692027,"30.360039,-97.692027"
1290,1290,829 Rundberg/Middle Fiskville,30.357384999999997,-97.686663,"30.357384999999997,-97.686663"
1296,1296,7346 Lamar/Sugaree,30.34127,-97.71682,"30.34127,-97.71682"
1307,1307,1041 St Johns/Meador,30.329040000000003,-97.69637,"30.329040000000003,-97.69637"
1308,1308,1127 St Johns/Grand Canyon,30.328129999999998,-97.69448,"30.328129999999998,-97.69448"
1313,1313,Berkman/US 290 NW Corner,30.3223,-97.68924,"30.3223,-97.68924"
1316,1316,6208 Berkman/Glen Valley,30.316451,-97.691223,"30.316451,-97.691223"
1318,1318,5810 Berkman/Sweetbriar,30.312310999999998,-97.69366600000001,"30.312310999999998,-97.69366600000001"
1319,1319,Berkman/Cloverleaf,30.309341999999997,-97.695539,"30.309341999999997,-97.695539"
1330,1330,4612 Springdale/Touchstone,30.289603000000003,-97.680296,"30.289603000000003,-97.680296"
1331,1331,4300 Springdale/Martin Luther King,30.286134000000004,-97.682608,"30.286134000000004,-97.682608"
1332,1332,Springdale/Oak Cliff,30.285006,-97.68328100000001,"30.285006,-97.68328100000001"
1333,1333,Springdale/Kitty,30.283131,-97.684516,"30.283131,-97.684516"
1334,1334,Springdale/Glomar,30.281878999999996,-97.685305,"30.281878999999996,-97.685305"
1335,1335,1200 Springdale/12th,30.279234000000002,-97.686965,"30.279234000000002,-97.686965"
1336,1336,1150 Springdale/Webberville,30.276735,-97.688489,"30.276735,-97.688489"
1337,1337,1106 Springdale/Ledesma,30.274303000000003,-97.69009,"30.274303000000003,-97.69009"
1338,1338,1050 Springdale/Prock,30.270901000000002,-97.692225,"30.270901000000002,-97.692225"
1339,1339,1018 Springdale/Goodwin,30.267578999999998,-97.694349,"30.267578999999998,-97.694349"
1340,1340,1006 Springdale/Airport,30.266136,-97.695276,"30.266136,-97.695276"
1341,1341,3600 Govalle/Gunter,30.264829,-97.69866400000001,"30.264829,-97.69866400000001"
1342,1342,3200 Govalle/Tillery,30.26602,-97.70201999999999,"30.26602,-97.70201999999999"
1344,1344,Govalle/Webberville,30.2677,-97.70687,"30.2677,-97.70687"
1346,1346,850 Pleasant Valley/Webberville,30.265159999999998,-97.70881,"30.265159999999998,-97.70881"
1347,1347,820 Pleasant Valley/Lyons,30.26365,-97.70834,"30.26365,-97.70834"
1349,1349,650 Pleasant Valley/7th,30.259735,-97.70972900000001,"30.259735,-97.70972900000001"
1352,1352,104 Pleasant Valley/Cesar Chavez,30.253275,-97.712766,"30.253275,-97.712766"
1353,1353,1108 Pleasant Valley/Lakeshore,30.242025,-97.717608,"30.242025,-97.717608"
1356,1356,2502 Oltorf/Pleasant Valley,30.227843,-97.728279,"30.227843,-97.728279"
1358,1358,2030 Oltorf/Willow Creek,30.230518,-97.732354,"30.230518,-97.732354"
1359,1359,2201 Burton/Oltorf,30.231208000000002,-97.73355,"30.231208000000002,-97.73355"
1361,1361,Burton/Riverside,30.239196000000003,-97.72757800000001,"30.239196000000003,-97.72757800000001"
1363,1363,Elmont/Pleasant Valley,30.239077,-97.720327,"30.239077,-97.720327"
1364,1364,1100 Pleasant Valley/Lakeshore,30.242290999999998,-97.717206,"30.242290999999998,-97.717206"
1365,1365,517 Pleasant Valley (Krieg Field),30.245846000000004,-97.71494799999999,"30.245846000000004,-97.71494799999999"
1366,1366,Pleasant Valley/2nd,30.253709999999998,-97.712369,"30.253709999999998,-97.712369"
1367,1367,301 Pleasant Valley/3rd,30.255151,-97.7117,"30.255151,-97.7117"
1368,1368,501 Pleasant Valley/5th,30.257417999999998,-97.710603,"30.257417999999998,-97.710603"
1369,1369,651 Pleasant Valley/7th,30.259906,-97.709468,"30.259906,-97.709468"
1372,1372,819 Pleasant Valley/Lyons,30.263527000000003,-97.708225,"30.263527000000003,-97.708225"
1373,1373,851 Pleasant Valley/Webberville,30.2653,-97.70876,"30.2653,-97.70876"
1377,1377,3601 Govalle/Gunter,30.264615999999997,-97.698463,"30.264615999999997,-97.698463"
1379,1379,1017 Springdale/Goodwin,30.267244,-97.694388,"30.267244,-97.694388"
1381,1381,1053 Springdale/Prock,30.27106,-97.69193,"30.27106,-97.69193"
1382,1382,1107 Springdale/Ledesma,30.274299,-97.689894,"30.274299,-97.689894"
1383,1383,1161 Springdale/Webberville,30.277096000000004,-97.688064,"30.277096000000004,-97.688064"
1384,1384,1207 Springdale/12th,30.279923999999998,-97.686346,"30.279923999999998,-97.686346"
1385,1385,Springdale/Leslie,30.282374,-97.684815,"30.282374,-97.684815"
1386,1386,Springdale/Bandera,30.283988,-97.683748,"30.283988,-97.683748"
1387,1387,1819 Springdale/Martin Luther King,30.28557,-97.68273,"30.28557,-97.68273"
1396,1396,Berkman/Larkwood,30.31036,-97.69473,"30.31036,-97.69473"
1398,1398,6001 Berkman/Briarcliff,30.314785999999998,-97.692049,"30.314785999999998,-97.692049"
1399,1399,6207 Berkman/Glen Valley,30.31646,-97.691029,"30.31646,-97.691029"
1400,1400,6509 Berkman/Wheless,30.318728000000004,-97.689634,"30.318728000000004,-97.689634"
1401,1401,Berkman/US 290 SE Corner,30.320740999999998,-97.688771,"30.320740999999998,-97.688771"
1402,1402,Berkman/US 290 NE Corner,30.322440000000004,-97.68899,"30.322440000000004,-97.68899"
1407,1407,7200 Cameron/St Johns,30.326290000000004,-97.69233,"30.326290000000004,-97.69233"
1408,1408,1034 St Johns/Meador,30.32925,-97.69644,"30.32925,-97.69644"
1409,1409,1008 St Johns/Bethune,30.33032,-97.69854000000001,"30.33032,-97.69854000000001"
1410,1410,900 St Johns/Bennett,30.331594,-97.701247,"30.331594,-97.701247"
1412,1412,7100 Roland Johnson/St Johns,30.333174,-97.706079,"30.333174,-97.706079"
1413,1413,6970 Roland Johnson/Huntland,30.330907,-97.706983,"30.330907,-97.706983"
1414,1414,300 Huntland/Brenda,30.330854,-97.71068100000001,"30.330854,-97.71068100000001"
1415,1415,6500 Jonathan Dr (Highland Mall),30.328767,-97.71305600000001,"30.328767,-97.71305600000001"
1417,1417,7401 Lamar/St Johns,30.341113,-97.716607,"30.341113,-97.716607"
1423,1423,Exposition/Warren,30.309551000000003,-97.762879,"30.309551000000003,-97.762879"
1424,1424,Exposition/Mountain Laurel,30.307628,-97.763402,"30.307628,-97.763402"
1425,1425,Exposition/Northwood,30.305496,-97.764927,"30.305496,-97.764927"
1426,1426,2728 Exposition (Casis Elementary),30.303790000000003,-97.764542,"30.303790000000003,-97.764542"
1440,1440,2525 Enfield/Norwalk,30.289983000000003,-97.7712,"30.289983000000003,-97.7712"
1444,1444,1801 Enfield/Hartford,30.284785999999997,-97.762233,"30.284785999999997,-97.762233"
1446,1446,1603 Enfield/West Lynn,30.282771,-97.758105,"30.282771,-97.758105"
1465,1465,Oltorf/Alta Vista,30.236320000000003,-97.74719,"30.236320000000003,-97.74719"
1466,1466,1101 Oltorf/Alta Vista,30.235651,-97.745688,"30.235651,-97.745688"
1467,1467,1313 Oltorf/Schriber,30.234202000000003,-97.743018,"30.234202000000003,-97.743018"
1474,1474,1605 Oltorf/IH 35,30.233220000000003,-97.739459,"30.233220000000003,-97.739459"
1475,1475,1747 Oltorf/Parker,30.232279,-97.737098,"30.232279,-97.737098"
1494,1494,710 Oltorf/East Side,30.23677,-97.748611,"30.23677,-97.748611"
1504,1504,324 12th/Guadalupe,30.274749,-97.74333,"30.274749,-97.74333"
1511,1511,Enfield/Pease,30.283102000000003,-97.758934,"30.283102000000003,-97.758934"
1513,1513,1728 Enfield/Hartford,30.28462,-97.761717,"30.28462,-97.761717"
1517,1517,2600 Enfield/Norwalk,30.29028,-97.771413,"30.29028,-97.771413"
1519,1519,Enfield/Hopi,30.292410999999998,-97.775684,"30.292410999999998,-97.775684"
1540,1540,6594 1st/William Cannon,30.197445000000002,-97.7875,"30.197445000000002,-97.7875"
1541,1541,6403 S 1st/Eberhart,30.200331,-97.785673,"30.200331,-97.785673"
1542,1542,6001 S 1st/Flournoy,30.203634,-97.783793,"30.203634,-97.783793"
1543,1543,5803 South 1st/Flournoy,30.205408000000002,-97.782945,"30.205408000000002,-97.782945"
1545,1545,5201 S 1st/Ramble,30.211572999999998,-97.779025,"30.211572999999998,-97.779025"
1546,1546,5001 S 1st/Emerald Wood,30.213276,-97.77801099999999,"30.213276,-97.77801099999999"
1547,1547,4901 S 1st/Heartwood,30.214438,-97.776945,"30.214438,-97.776945"
1548,1548,4617 S 1st/Orland,30.216798999999998,-97.77545400000001,"30.216798999999998,-97.77545400000001"
1549,1549,4401 S 1st/St Elmo,30.220937,-97.772909,"30.220937,-97.772909"
1550,1550,4217 S 1st/Radam,30.223688,-97.771174,"30.223688,-97.771174"
1553,1553,3811 S 1st/Krebs,30.227804,-97.76856,"30.227804,-97.76856"
1554,1554,3715 1st/South Center,30.229626,-97.76746899999999,"30.229626,-97.76746899999999"
1555,1555,3505 S 1st/Alpine,30.231309000000003,-97.766349,"30.231309000000003,-97.766349"
1556,1556,3205 S 1st/South Park,30.232951,-97.765303,"30.232951,-97.765303"
1557,1557,3001 S 1st/Powell,30.235094,-97.763975,"30.235094,-97.763975"
1558,1558,2701 S 1st/Cumberland,30.238061,-97.762106,"30.238061,-97.762106"
1559,1559,2529 S 1st/Herndon,30.239949,-97.760859,"30.239949,-97.760859"
1560,1560,2401 S 1st/Oltorf,30.24193,-97.759656,"30.24193,-97.759656"
1561,1561,2201 S 1st/Live Oak,30.244369,-97.757657,"30.244369,-97.757657"
1562,1562,1801 S 1st/Annie,30.247241,-97.755836,"30.247241,-97.755836"
1564,1564,1001 S 1st/Copeland,30.253611,-97.75294,"30.253611,-97.75294"
1565,1565,615 South 1st/Copeland,30.256192,-97.751284,"30.256192,-97.751284"
1566,1566,505 S 1st/Barton Springs,30.258136999999998,-97.750069,"30.258136999999998,-97.750069"
1577,1577,Dean Keeton/Dancy,30.285195,-97.722898,"30.285195,-97.722898"
1578,1578,2219 Manor/Chestnut,30.284353999999997,-97.71826899999999,"30.284353999999997,-97.71826899999999"
1579,1579,2515 Manor/Stafford,30.284779999999998,-97.715568,"30.284779999999998,-97.715568"
1580,1580,2709 Manor/Walnut,30.285090999999998,-97.71356999999999,"30.285090999999998,-97.71356999999999"
1581,1581,2803 Manor/Merrie Lynn,30.28535,-97.71191800000001,"30.28535,-97.71191800000001"
1582,1582,Manor/Alexander,30.285646999999997,-97.709889,"30.285646999999997,-97.709889"
1583,1583,2963 Manor/Rountree,30.286087,-97.70702,"30.286087,-97.70702"
1588,1588,Morris Williams Golf Course,30.290077,-97.694633,"30.290077,-97.694633"
1589,1589,4601 Manor/Lovell,30.292793,-97.689207,"30.292793,-97.689207"
1590,1590,5005 Manor/Manor Circle,30.297047999999997,-97.687528,"30.297047999999997,-97.687528"
1591,1591,5029 Manor/51st,30.297974,-97.68704699999999,"30.297974,-97.68704699999999"
1592,1592,Manor/Pecan Springs,30.301198,-97.684791,"30.301198,-97.684791"
1593,1593,5503 Manor/Pecan Springs,30.302505,-97.683408,"30.302505,-97.683408"
1594,1594,5711 Manor/Rogge,30.305088,-97.68083,"30.305088,-97.68083"
1595,1595,5819 Manor/Sweeney,30.306309999999996,-97.680068,"30.306309999999996,-97.680068"
1597,1597,6211 Manor/Walnut Hills,30.307940999999996,-97.675228,"30.307940999999996,-97.675228"
1598,1598,6303 Manor/Reicher,30.308003999999997,-97.67264499999999,"30.308003999999997,-97.67264499999999"
1599,1599,6311 Manor/Northeast,30.308382,-97.671054,"30.308382,-97.671054"
1600,1600,6699 Manor/Loyola,30.30992,-97.66719,"30.30992,-97.66719"
1601,1601,7033 Manor/Susquehanna,30.312849,-97.665031,"30.312849,-97.665031"
1603,1603,4601 Pecan Brook/Manor,30.318321,-97.660799,"30.318321,-97.660799"
1604,1604,5109 Pecan Brook/Chisos Pass,30.315551,-97.657848,"30.315551,-97.657848"
1606,1606,5513 Pecan Brook/Tumbleweed,30.313182,-97.653153,"30.313182,-97.653153"
1607,1607,5721 Pecan Brook/Crystalbrook,30.31198,-97.65061999999999,"30.31198,-97.65061999999999"
1608,1608,7008 Crystalbrook/Purple Sage,30.308000000000003,-97.652679,"30.308000000000003,-97.652679"
1614,1614,7109 Crystalbrook/Purple Sage,30.308573,-97.652374,"30.308573,-97.652374"
1615,1615,5600 Pecan Brook/Tumbleweed,30.313091999999997,-97.65260500000001,"30.313091999999997,-97.65260500000001"
1616,1616,5300 Pecan Brook/Uray,30.314638000000002,-97.655825,"30.314638000000002,-97.655825"
1617,1617,5110 Pecan Brook/Chisos Pass,30.315559999999998,-97.65762,"30.315559999999998,-97.65762"
1618,1618,4600 Pecan Brook/Manor,30.318264000000003,-97.66035699999999,"30.318264000000003,-97.66035699999999"
1619,1619,7000 Manor/Susquehanna,30.313865000000003,-97.664697,"30.313865000000003,-97.664697"
1621,1621,6650 Manor/Loyola,30.310003000000002,-97.66748199999999,"30.310003000000002,-97.66748199999999"
1622,1622,6400 Manor/Northeast,30.3085,-97.671213,"30.3085,-97.671213"
1623,1623,6300 Manor/Reicher,30.30814,-97.672813,"30.30814,-97.672813"
1624,1624,6118 Manor/Walnut Hills,30.308097999999998,-97.67644399999999,"30.308097999999998,-97.67644399999999"
1625,1625,6102 Manor/Wheeless,30.307940999999996,-97.67819399999999,"30.307940999999996,-97.67819399999999"
1626,1626,5900 Manor/Sweeney,30.306590000000003,-97.68010100000001,"30.306590000000003,-97.68010100000001"
1627,1627,5700 Manor/Rogge,30.304709999999996,-97.68131,"30.304709999999996,-97.68131"
1629,1629,Manor/Wellington,30.30115,-97.685058,"30.30115,-97.685058"
1631,1631,5100 Manor/51st,30.298362,-97.68701999999999,"30.298362,-97.68701999999999"
1632,1632,Manor/Manor Circle,30.297014,-97.68771600000001,"30.297014,-97.68771600000001"
1633,1633,4500 Manor/Lovell,30.29216,-97.689382,"30.29216,-97.689382"
1635,1635,3600 Manor/Pershing,30.289340000000003,-97.698275,"30.289340000000003,-97.698275"
1636,1636,Manor/Anchor,30.287728,-97.701113,"30.287728,-97.701113"
1638,1638,2948 Manor/Banton,30.286111,-97.707942,"30.286111,-97.707942"
1639,1639,Manor/Randolph,30.285663,-97.710921,"30.285663,-97.710921"
1640,1640,Manor/Walnut,30.285159000000004,-97.714104,"30.285159000000004,-97.714104"
1642,1642,2314 Manor/Maple,30.284671999999997,-97.717292,"30.284671999999997,-97.717292"
1643,1643,Dean Keeton/French,30.284134,-97.72059499999999,"30.284134,-97.72059499999999"
1644,1644,Dean Keeton/Dancy NE Corner,30.285272999999997,-97.722452,"30.285272999999997,-97.722452"
1655,1655,400 S 1st/Riverside,30.259308,-97.749759,"30.259308,-97.749759"
1656,1656,500 S 1st/Barton Springs,30.258081,-97.750396,"30.258081,-97.750396"
1657,1657,614 South 1st/Barton Springs,30.256619,-97.751224,"30.256619,-97.751224"
1659,1659,1214 S 1st/Gibson,30.251662,-97.754362,"30.251662,-97.754362"
1661,1661,1720 S 1st/Annie,30.247569,-97.755862,"30.247569,-97.755862"
1662,1662,2112 S 1st/Live Oak,30.244645000000002,-97.757707,"30.244645000000002,-97.757707"
1663,1663,2324 S 1st/Oltorf,30.242264000000002,-97.759614,"30.242264000000002,-97.759614"
1664,1664,2522 S 1st/Herndon,30.239755,-97.761235,"30.239755,-97.761235"
1665,1665,2904 S 1st/Sacramento,30.236209000000002,-97.763482,"30.236209000000002,-97.763482"
1666,1666,3014 S 1st/Peacock,30.234537,-97.764504,"30.234537,-97.764504"
1667,1667,3310 S 1st/Cardinal,30.232131,-97.766035,"30.232131,-97.766035"
1668,1668,3508 S 1st/Alpine,30.230904,-97.76678100000001,"30.230904,-97.76678100000001"
1669,1669,3808 S 1st/Post Road,30.228459,-97.768348,"30.228459,-97.768348"
1671,1671,4104 S 1st/Ben White,30.225333000000003,-97.770328,"30.225333000000003,-97.770328"
1672,1672,4220 S 1st/Clifford,30.223353000000003,-97.771567,"30.223353000000003,-97.771567"
1673,1673,4326 S 1st/St Elmo,30.221255,-97.77289300000001,"30.221255,-97.77289300000001"
1674,1674,4530 S 1st/Philco,30.218151000000002,-97.774823,"30.218151000000002,-97.774823"
1676,1676,5000 S 1st/Emerald Wood,30.213437,-97.778077,"30.213437,-97.778077"
1678,1678,5400 S 1st/Arbor Circle,30.210434000000003,-97.780019,"30.210434000000003,-97.780019"
1681,1681,6106 S 1st/Blueberry,30.202421,-97.784596,"30.202421,-97.784596"
1682,1682,6400 S 1st/Eberhart,30.200712,-97.78568299999999,"30.200712,-97.78568299999999"
1683,1683,6502 S 1st/King Edward,30.199208000000002,-97.786609,"30.199208000000002,-97.786609"
1685,1685,William Cannon/Cooper,30.198565000000002,-97.790913,"30.198565000000002,-97.790913"
1686,1686,William Cannon/Emerald Forest,30.199334000000004,-97.79335400000001,"30.199334000000004,-97.79335400000001"
1701,1701,4400 Red River/44th,30.303378000000002,-97.72062,"30.303378000000002,-97.72062"
1703,1703,4000 Red River/40th,30.298607,-97.72278299999999,"30.298607,-97.72278299999999"
1704,1704,Red River/38th,30.295759999999998,-97.723443,"30.295759999999998,-97.723443"
1706,1706,3100 Red River/32nd,30.290571999999997,-97.727389,"30.290571999999997,-97.727389"
1718,1718,604 Barton Springs/1st,30.258710999999998,-97.750773,"30.258710999999998,-97.750773"
1720,1720,710 Bouldin/Retama,30.257201000000002,-97.755051,"30.257201000000002,-97.755051"
1721,1721,1006 Bouldin/Columbus,30.254688,-97.756456,"30.254688,-97.756456"
1722,1722,1316 Bouldin/Elizabeth,30.252322999999997,-97.757885,"30.252322999999997,-97.757885"
1723,1723,1514 Bouldin/Monroe,30.250809000000004,-97.758737,"30.250809000000004,-97.758737"
1724,1724,Bouldin/Annie,30.24878,-97.759825,"30.24878,-97.759825"
1725,1725,Annie/5th,30.249232,-97.761383,"30.249232,-97.761383"
1726,1726,1816 S 5th/Mary,30.248451,-97.762069,"30.248451,-97.762069"
1730,1730,5th/Cumberland,30.239990999999996,-97.766028,"30.239990999999996,-97.766028"
1731,1731,1010 Cumberland/5th,30.240685,-97.767903,"30.240685,-97.767903"
1732,1732,2714 Raywood/Locke,30.240225,-97.769008,"30.240225,-97.769008"
1733,1733,2866 Raywood/Weathers,30.238767,-97.769729,"30.238767,-97.769729"
1734,1734,1003 Barton Skyway/Garden Villa,30.235922,-97.76952299999999,"30.235922,-97.76952299999999"
1735,1735,3400 Garden Villa/Cardinal,30.234267,-97.77104399999999,"30.234267,-97.77104399999999"
1736,1736,Garden Villa/South Center NW Corner,30.231869,-97.772554,"30.231869,-97.772554"
1737,1737,Garden Villa/Banister,30.229371,-97.77416099999999,"30.229371,-97.77416099999999"
1741,1741,4402 Banister/Casey,30.225327000000004,-97.78108399999999,"30.225327000000004,-97.78108399999999"
1742,1742,Redd/Gillis,30.224111999999998,-97.783447,"30.224111999999998,-97.783447"
1743,1743,Redd/Clawson,30.225828000000003,-97.78604,"30.225828000000003,-97.78604"
1744,1744,1918 Redd/Menchaca,30.228227,-97.78918900000001,"30.228227,-97.78918900000001"
1745,1745,Redd/Cactus,30.22897,-97.79075,"30.22897,-97.79075"
1746,1746,2222 Western Trails/Pack Saddle,30.230411,-97.793637,"30.230411,-97.793637"
1747,1747,2422 Western Trails/Roundup,30.229929,-97.79617900000001,"30.229929,-97.79617900000001"
1748,1748,2554 Western Trails/Tejas Trail,30.230226000000002,-97.79767,"30.230226000000002,-97.79767"
1750,1750,US 290/Mopac (Walmart),30.233365000000003,-97.82141999999999,"30.233365000000003,-97.82141999999999"
1754,1754,Western Trails/Roundup,30.229703999999998,-97.796366,"30.229703999999998,-97.796366"
1756,1756,2001 Redd/Menchaca,30.228309000000003,-97.789635,"30.228309000000003,-97.789635"
1757,1757,Redd/Russell,30.227114,-97.787154,"30.227114,-97.787154"
1759,1759,1301 Redd/Gillis,30.223675,-97.782793,"30.223675,-97.782793"
1760,1760,4309 Banister/Casey,30.225706,-97.780674,"30.225706,-97.780674"
1761,1761,Banister/Ben White SE Corner,30.227290000000004,-97.77963299999999,"30.227290000000004,-97.77963299999999"
1762,1762,Banister/Summer Oaks,30.229708000000002,-97.77799300000001,"30.229708000000002,-97.77799300000001"
1763,1763,3803 Garden Villa/Banister,30.230185,-97.773487,"30.230185,-97.773487"
1764,1764,Garden Villa/South Center,30.231689000000003,-97.772529,"30.231689000000003,-97.772529"
1766,1766,3401 Garden Villa/Cardinal,30.234270000000002,-97.77089000000001,"30.234270000000002,-97.77089000000001"
1767,1767,1008 Barton Skyway/Locke,30.236266999999998,-97.769888,"30.236266999999998,-97.769888"
1768,1768,2901 Raywood/Weathers,30.238522999999997,-97.769749,"30.238522999999997,-97.769749"
1769,1769,2801 Raywood/Locke,30.239921000000002,-97.769036,"30.239921000000002,-97.769036"
1770,1770,Cumberland/S. 5th,30.239818,-97.76617900000001,"30.239818,-97.76617900000001"
1772,1772,S. 5th/Live Oak,30.2461,-97.763411,"30.2461,-97.763411"
1773,1773,1901 S 5th/Mary,30.248199,-97.762089,"30.248199,-97.762089"
1774,1774,Annie/Bouldin,30.248678,-97.759937,"30.248678,-97.759937"
1775,1775,1601 Bouldin/Monroe,30.250582,-97.758707,"30.250582,-97.758707"
1776,1776,1401 Bouldin/Elizabeth,30.252104,-97.757885,"30.252104,-97.757885"
1778,1778,1007 Bouldin/Columbus,30.254593,-97.756351,"30.254593,-97.756351"
1779,1779,703 Bouldin/Post Oak,30.257521,-97.754706,"30.257521,-97.754706"
1780,1780,501 Bouldin/Barton Springs,30.259371,-97.75351500000001,"30.259371,-97.75351500000001"
1781,1781,215 Cesar Chavez/Lavaca,30.263819,-97.74636600000001,"30.263819,-97.74636600000001"
1784,1784,3805 Red River/38th Half,30.296366,-97.723097,"30.296366,-97.723097"
1785,1785,3923 Red River/40th,30.298740999999996,-97.722544,"30.298740999999996,-97.722544"
1787,1787,4309 Red River/44th,30.303319000000002,-97.720483,"30.303319000000002,-97.720483"
1794,1794,Airport/52nd,30.312952000000003,-97.715184,"30.312952000000003,-97.715184"
1795,1795,5315 Airport/53rd Half,30.314806,-97.714617,"30.314806,-97.714617"
1796,1796,5617 Airport/Koenig,30.318440000000002,-97.712869,"30.318440000000002,-97.712869"
1797,1797,5815 Airport/Koenig,30.322861,-97.714898,"30.322861,-97.714898"
1799,1799,1003 Cesar Chavez/San Marcos,30.260385,-97.734196,"30.260385,-97.734196"
1801,1801,1403 Cesar Chavez/Navasota,30.25899,-97.73018,"30.25899,-97.73018"
1802,1802,1605 Cesar Chavez/Comal,30.258278999999998,-97.72815600000001,"30.258278999999998,-97.72815600000001"
1822,1822,Gardner/Jain Ln.,30.259882,-97.68163299999999,"30.259882,-97.68163299999999"
1847,1847,1600 Cesar Chavez/Comal,30.25853,-97.72848,"30.25853,-97.72848"
1848,1848,1400 Cesar Chavez/Navasota,30.259225,-97.730508,"30.259225,-97.730508"
1849,1849,1200 Cesar Chavez/Waller,30.259911,-97.732463,"30.259911,-97.732463"
1850,1850,1000 Cesar Chavez/San Marcos,30.260578000000002,-97.73438,"30.260578000000002,-97.73438"
1864,1864,3513 Jefferson/35th,30.308329999999998,-97.751132,"30.308329999999998,-97.751132"
1866,1866,Bull Creek/39th,30.311658,-97.752215,"30.311658,-97.752215"
1871,1871,4419 Bull Creek/45th,30.320397999999997,-97.75347099999999,"30.320397999999997,-97.75347099999999"
1874,1874,5001 Bull Creek/Fresco,30.326565999999996,-97.749702,"30.326565999999996,-97.749702"
1876,1876,2824 Hancock/Bull Creek,30.328576,-97.750935,"30.328576,-97.750935"
1877,1877,Hancock/Frances Place,30.329875,-97.753562,"30.329875,-97.753562"
1878,1878,3306 Hancock/Balcones,30.332741,-97.759601,"30.332741,-97.759601"
1879,1879,Balcones/Parkcrest,30.336139000000003,-97.75796,"30.336139000000003,-97.75796"
1882,1882,6101 Balcones/Northland,30.34337,-97.75318,"30.34337,-97.75318"
1884,1884,6805 Wood Hollow/North Hills,30.350884000000004,-97.754614,"30.350884000000004,-97.754614"
1885,1885,Wood Hollow/Far West NE Corner,30.35377,-97.75282,"30.35377,-97.75282"
1886,1886,7131 Wood Hollow/Far West,30.355387,-97.75180999999999,"30.355387,-97.75180999999999"
1887,1887,3536 Greystone/Wood Hollow,30.358390000000004,-97.75135999999999,"30.358390000000004,-97.75135999999999"
1888,1888,3614 Greystone/Hart,30.35882,-97.75363,"30.35882,-97.75363"
1890,1890,7503 Mesa/Greystone,30.364990000000002,-97.76295,"30.364990000000002,-97.76295"
1891,1891,Mesa/Myrick,30.368290000000002,-97.75910999999999,"30.368290000000002,-97.75910999999999"
1892,1892,8045 Mesa/Spicewood Springs,30.37133,-97.757205,"30.37133,-97.757205"
1893,1893,4039 Steck/Mesa,30.37404,-97.75497,"30.37404,-97.75497"
1894,1894,3933 Steck/Spicewood,30.373071000000003,-97.752995,"30.373071000000003,-97.752995"
1895,1895,3813 Steck/Greenslope,30.372659999999996,-97.74893,"30.372659999999996,-97.74893"
1896,1896,Steck/Forest Mesa,30.37077,-97.74685600000001,"30.37077,-97.74685600000001"
1897,1897,3605 Steck/Forest Mesa,30.36958,-97.74562,"30.36958,-97.74562"
1898,1898,3519 Steck/Mopac,30.36875,-97.74387,"30.36875,-97.74387"
1899,1899,3305 Steck/Mopac,30.366743,-97.739675,"30.366743,-97.739675"
1900,1900,Rockwood/Steck,30.364359999999998,-97.73534000000001,"30.364359999999998,-97.73534000000001"
1902,1902,7920 Rockwood/Ashdale,30.360677000000003,-97.737737,"30.360677000000003,-97.737737"
1904,1904,7921 Rockwood/Anderson,30.360840000000003,-97.73743,"30.360840000000003,-97.73743"
1906,1906,Steck/Sandalwood,30.364974,-97.735546,"30.364974,-97.735546"
1907,1907,3400 Steck/Shoal Creek,30.366965000000004,-97.739674,"30.366965000000004,-97.739674"
1909,1909,Steck/Mopac,30.368976,-97.743943,"30.368976,-97.743943"
1910,1910,Steck/Summerside,30.37058,-97.7466,"30.37058,-97.7466"
1911,1911,3822 Steck/Greenslope,30.37292,-97.74916999999999,"30.37292,-97.74916999999999"
1912,1912,3924 Steck/Spicewood,30.373226000000003,-97.75297900000001,"30.373226000000003,-97.75297900000001"
1913,1913,8140 Mesa/Steck,30.37377,-97.756008,"30.37377,-97.756008"
1914,1914,8038 Mesa/Spicewood Springs,30.371,-97.75759000000001,"30.371,-97.75759000000001"
1917,1917,3807 Greystone/Chimney Corners,30.36082,-97.75738,"30.36082,-97.75738"
1918,1918,3615 Greystone/Hart,30.35865,-97.75363,"30.35865,-97.75363"
1919,1919,7400 Wood Hollow/Greystone,30.35775,-97.75079000000001,"30.35775,-97.75079000000001"
1920,1920,7200 Wood Hollow/Greystone,30.35517,-97.75214,"30.35517,-97.75214"
1921,1921,Wood Hollow/Far West NW Corner,30.3536,-97.75310999999999,"30.3536,-97.75310999999999"
1922,1922,6714 Wood Hollow/Far West,30.35077,-97.75486,"30.35077,-97.75486"
1923,1923,North Hills/Valleyside SE Corner,30.348809999999997,-97.75376999999999,"30.348809999999997,-97.75376999999999"
1925,1925,5758 Balcones/Hart,30.339599,-97.75579300000001,"30.339599,-97.75579300000001"
1927,1927,3313 Hancock/Balcones,30.332659000000003,-97.7597,"30.332659000000003,-97.7597"
1928,1928,Hancock/Valley Oak,30.331464,-97.75715,"30.331464,-97.75715"
1929,1929,Hancock/West Frances Place,30.329565999999996,-97.753292,"30.329565999999996,-97.753292"
1930,1930,2825 Hancock/Fresco,30.328059999999997,-97.75024,"30.328059999999997,-97.75024"
1931,1931,Bull Creek/Hancock,30.327267,-97.74943499999999,"30.327267,-97.74943499999999"
1932,1932,4748 Bull Creek/49th,30.324792,-97.750945,"30.324792,-97.750945"
1933,1933,4700 Bull Creek/Perry,30.323210999999997,-97.75192,"30.323210999999997,-97.75192"
1935,1935,4318 Bull Creek/44th,30.318162,-97.755038,"30.318162,-97.755038"
1936,1936,4220 Bull Creek/Jackson,30.316658,-97.754834,"30.316658,-97.754834"
1938,1938,Bull Creek/38th,30.311138,-97.75205799999999,"30.311138,-97.75205799999999"
1939,1939,3604 Bull Creek/Jefferson,30.309399,-97.75095400000001,"30.309399,-97.75095400000001"
1957,1957,Health Center WB,30.252658,-97.73424200000001,"30.252658,-97.73424200000001"
1959,1959,59 Waller/Holly,30.256190000000004,-97.73425999999999,"30.256190000000004,-97.73425999999999"
1966,1966,6th/Guadalupe,30.269078999999998,-97.746086,"30.269078999999998,-97.746086"
1970,1970,842 6th/Wood,30.270962,-97.752215,"30.270962,-97.752215"
1971,1971,6th/Baylor,30.271955,-97.754879,"30.271955,-97.754879"
1972,1972,1208 6th/Harthan,30.273061,-97.757846,"30.273061,-97.757846"
1973,1973,6th/Pressler,30.273934999999998,-97.760118,"30.273934999999998,-97.760118"
1974,1974,6th/West Lynn,30.274835999999997,-97.762509,"30.274835999999997,-97.762509"
1977,1977,Veterans/Atlanta,30.276121000000003,-97.771658,"30.276121000000003,-97.771658"
1981,1981,Lake Austin/7th,30.282319,-97.77605799999999,"30.282319,-97.77605799999999"
1983,1983,Exposition/10th,30.285795,-97.77499399999999,"30.285795,-97.77499399999999"
1984,1984,Exposition/12th,30.28766,-97.773815,"30.28766,-97.773815"
1985,1985,Exposition/Enfield SE Corner,30.290414000000002,-97.77208900000001,"30.290414000000002,-97.77208900000001"
1996,1996,35th/Jefferson,30.30776,-97.7519,"30.30776,-97.7519"
1997,1997,35th/Crawford,30.307129999999997,-97.74927,"30.307129999999997,-97.74927"
1998,1998,1301 W 38th/Tonkawa,30.306459999999998,-97.74609,"30.306459999999998,-97.74609"
1999,1999,38th/Medical Parkway,30.305322999999998,-97.74376,"30.305322999999998,-97.74376"
2003,2003,2900 Guadalupe/29th,30.295655,-97.742752,"30.295655,-97.742752"
2004,2004,307 Dean Keeton/San Jacinto,30.289202000000003,-97.734866,"30.289202000000003,-97.734866"
2005,2005,701 Dean Keeton/San Jacinto,30.289092999999998,-97.73154,"30.289092999999998,-97.73154"
2006,2006,Dean Keeton/Robert Dedman,30.28783,-97.728643,"30.28783,-97.728643"
2012,2012,1101 38th Half/Robinson,30.294337,-97.71870799999999,"30.294337,-97.71870799999999"
2013,2013,1405 38th Half/Clarkson,30.2927,-97.71574,"30.2927,-97.71574"
2014,2014,38th 1/2 /Cherrywood,30.291308,-97.713951,"30.291308,-97.713951"
2015,2015,Cherrywood/32nd,30.286857,-97.716876,"30.286857,-97.716876"
2019,2019,Lafayette/Manor,30.283896999999996,-97.72223100000001,"30.283896999999996,-97.72223100000001"
2020,2020,2012 Chicon/21st,30.281539000000002,-97.72167900000001,"30.281539000000002,-97.72167900000001"
2021,2021,1810 Chicon/Martin Luther King,30.279458,-97.721226,"30.279458,-97.721226"
2022,2022,Chicon/16th,30.276889,-97.720647,"30.276889,-97.720647"
2023,2023,Chicon/13th,30.274873,-97.72021600000001,"30.274873,-97.72021600000001"
2024,2024,1196 Chicon/12th,30.273484000000003,-97.71992,"30.273484000000003,-97.71992"
2025,2025,Chicon/New York,30.272537,-97.719729,"30.272537,-97.719729"
2026,2026,1150 Chicon/Rosewood,30.269775,-97.719137,"30.269775,-97.719137"
2027,2027,Chicon/Cornell,30.268434000000003,-97.719497,"30.268434000000003,-97.719497"
2028,2028,Chicon/11th,30.266178000000004,-97.72055300000001,"30.266178000000004,-97.72055300000001"
2029,2029,900 Chicon (Huston-Tillotson),30.264536,-97.721293,"30.264536,-97.721293"
2030,2030,700 Chicon/7th,30.262760999999998,-97.722107,"30.262760999999998,-97.722107"
2032,2032,314 Chicon/4th,30.259509,-97.723601,"30.259509,-97.723601"
2033,2033,206 Chicon/2nd,30.258414000000002,-97.724115,"30.258414000000002,-97.724115"
2039,2039,1700 Holly/Chalmers,30.25422,-97.72813199999999,"30.25422,-97.72813199999999"
2040,2040,1600 Holly/Comal,30.254921000000003,-97.730153,"30.254921000000003,-97.730153"
2041,2041,1400 Holly/Navasota,30.255619,-97.732075,"30.255619,-97.732075"
2045,2045,45 Waller/Clermont,30.254853000000004,-97.73485500000001,"30.254853000000004,-97.73485500000001"
2046,2046,1401 Holly/Navasota,30.255457,-97.73204,"30.255457,-97.73204"
2047,2047,1511 Holly/Comal,30.254888,-97.730453,"30.254888,-97.730453"
2048,2048,1631 Holly/Chalmers,30.254178999999997,-97.72845799999999,"30.254178999999997,-97.72845799999999"
2055,2055,311 Chicon/4th,30.259493,-97.723477,"30.259493,-97.723477"
2056,2056,613 Chicon/7th,30.262273999999998,-97.722189,"30.262273999999998,-97.722189"
2057,2057,807 Chicon (Huston-Tillotson),30.263956,-97.721408,"30.263956,-97.721408"
2058,2058,Chicon/College Row,30.265511,-97.720676,"30.265511,-97.720676"
2059,2059,Chicon/Hamilton,30.267474,-97.719768,"30.267474,-97.719768"
2060,2060,1143a Chicon/Cornell,30.269044,-97.71905799999999,"30.269044,-97.71905799999999"
2061,2061,1155 Chicon/Rosewood,30.270126,-97.719064,"30.270126,-97.719064"
2062,2062,Chicon/Pennsylvania,30.271659999999997,-97.719385,"30.271659999999997,-97.719385"
2063,2063,1197 Chicon/12th,30.273559000000002,-97.719788,"30.273559000000002,-97.719788"
2064,2064,Chicon/14th,30.27565,-97.720224,"30.27565,-97.720224"
2065,2065,Chicon/17th,30.2777,-97.72068,"30.2777,-97.72068"
2066,2066,1817 Chicon/Martin Luther King,30.279657,-97.72111600000001,"30.279657,-97.72111600000001"
2067,2067,2103 Chicon/21st,30.282120000000003,-97.721643,"30.282120000000003,-97.721643"
2071,2071,1602 38th Half/Maplewood,30.29213,-97.71425,"30.29213,-97.71425"
2077,2077,920 Dean Keeton/Red River,30.287578999999997,-97.727345,"30.287578999999997,-97.727345"
2079,2079,Dean Keeton/Speedway NE Corner,30.289563,-97.73662900000001,"30.289563,-97.73662900000001"
2086,2086,38th/Bailey,30.306256,-97.745209,"30.306256,-97.745209"
2087,2087,1512 35th/Kerbey,30.30722,-97.75014,"30.30722,-97.75014"
2088,2088,35th/Lawton,30.308197999999997,-97.752801,"30.308197999999997,-97.752801"
2089,2089,35th/Jackson,30.308822999999997,-97.75570400000001,"30.308822999999997,-97.75570400000001"
2090,2090,2300 W 35th/Mopac,30.309568,-97.75997199999999,"30.309568,-97.75997199999999"
2102,2102,2211 Lake Austin/Veterans,30.277379999999997,-97.77136999999999,"30.277379999999997,-97.77136999999999"
2104,2104,5th/Pressler,30.272678000000003,-97.76093399999999,"30.272678000000003,-97.76093399999999"
2106,2106,5th/Baylor,30.270977000000002,-97.75640600000001,"30.270977000000002,-97.75640600000001"
2107,2107,5th/Bowie,30.269522,-97.752626,"30.269522,-97.752626"
2108,2108,5th/West,30.26926,-97.75113,"30.26926,-97.75113"
2110,2110,5th/Nueces,30.268672,-97.748979,"30.268672,-97.748979"
2111,2111,5th/San Antonio,30.26835,-97.74792,"30.26835,-97.74792"
2112,2112,5th/Guadalupe,30.268054,-97.74679,"30.268054,-97.74679"
2144,2144,Barton Springs/Barton,30.263834000000003,-97.763936,"30.263834000000003,-97.763936"
2145,2145,1619 Barton Springs/Kinney,30.262396999999996,-97.762236,"30.262396999999996,-97.762236"
2148,2148,911 Barton Springs/Bouldin,30.25961,-97.753924,"30.25961,-97.753924"
2155,2155,910 Barton Springs/Bouldin,30.259787,-97.753879,"30.259787,-97.753879"
2157,2157,1218 Barton Springs/Lee Barton,30.260734999999997,-97.757225,"30.260734999999997,-97.757225"
2160,2160,1718 Barton Springs/Kinney,30.263215000000002,-97.762789,"30.263215000000002,-97.762789"
2169,2169,Woodward/Parker SW Corner,30.219261,-97.743912,"30.219261,-97.743912"
2175,2175,South 1st/Ben White,30.227120000000003,-97.769607,"30.227120000000003,-97.769607"
2176,2176,1228 Ben White/Banister,30.228181,-97.778886,"30.228181,-97.778886"
2177,2177,Ben White/Clawson,30.228725,-97.78379100000001,"30.228725,-97.78379100000001"
2181,2181,Walsh Tarlton/Twin Berry,30.26264,-97.80853499999999,"30.26264,-97.80853499999999"
2183,2183,1701 Walsh Tarlton/Thousand Oaks,30.266527000000004,-97.80608199999999,"30.266527000000004,-97.80608199999999"
2184,2184,1501 Walsh Tarlton/Terrapin,30.268379,-97.804908,"30.268379,-97.804908"
2186,2186,1019 Walsh Tarlton/Wilderness,30.272569,-97.801467,"30.272569,-97.801467"
2191,2191,Spyglass/Barton Skyway,30.258128999999997,-97.787481,"30.258128999999997,-97.787481"
2202,2202,1871 Barton Springs/Azie Morton,30.264484999999997,-97.764399,"30.264484999999997,-97.764399"
2206,2206,2220 Barton Springs (Zilker),30.268347,-97.772808,"30.268347,-97.772808"
2207,2207,2500 Wallingwood/Bee Caves,30.264934000000004,-97.782988,"30.264934000000004,-97.782988"
2212,2212,1500 Walsh Tarlton/Terrapin,30.268486,-97.805071,"30.268486,-97.805071"
2213,2213,1614 Walsh Tarlton/Thousand Oaks,30.266895,-97.806086,"30.266895,-97.806086"
2214,2214,1916 Walsh Tarlton/Stoneridge,30.264390000000002,-97.807634,"30.264390000000002,-97.807634"
2215,2215,Walsh Tarlton/Tamarron,30.261559000000002,-97.80944000000001,"30.261559000000002,-97.80944000000001"
2216,2216,4401 Pack Saddle Pass/Ben White,30.231016999999998,-97.792022,"30.231016999999998,-97.792022"
2218,2218,1901 Ben White/Merle,30.229072,-97.787515,"30.229072,-97.787515"
2220,2220,Ben White/Gillis,30.227404999999997,-97.781573,"30.227404999999997,-97.781573"
2221,2221,1301 Ben White/Banister,30.227363,-97.779907,"30.227363,-97.779907"
2229,2229,2410 Grove/Montopolis,30.220474,-97.707258,"30.220474,-97.707258"
2230,2230,2800 Montopolis/Oltorf,30.216403999999997,-97.709274,"30.216403999999997,-97.709274"
2232,2232,6100 Oltorf/Montopolis,30.216576,-97.713186,"30.216576,-97.713186"
2233,2233,5500 Oltorf (Attorney General),30.219068,-97.718317,"30.219068,-97.718317"
2234,2234,5300 Oltorf/Alvin Devane,30.219811,-97.71986600000001,"30.219811,-97.71986600000001"
2235,2235,4820 Oltorf/Sunridge,30.223369,-97.722336,"30.223369,-97.722336"
2238,2238,2400 Oltorf/Pleasant Valley,30.228981,-97.729647,"30.228981,-97.729647"
2240,2240,1900 Oltorf/Burton,30.231313,-97.73530799999999,"30.231313,-97.73530799999999"
2241,2241,1730 Oltorf/Parker,30.232591999999997,-97.737362,"30.232591999999997,-97.737362"
2242,2242,1616 E Oltorf,30.233502,-97.739665,"30.233502,-97.739665"
2243,2243,1300 Oltorf/Schriber,30.23465,-97.74353,"30.23465,-97.74353"
2244,2244,1100 Oltorf/Schriber,30.235895000000003,-97.745863,"30.235895000000003,-97.745863"
2246,2246,512 Oltorf/Rebel,30.237484000000002,-97.751288,"30.237484000000002,-97.751288"
2249,2249,526 Oltorf/1st,30.242137,-97.759362,"30.242137,-97.759362"
2251,2251,910 Oltorf/ South 4th,30.243574,-97.76374799999999,"30.243574,-97.76374799999999"
2255,2255,2330 Lamar/Goodrich,30.247258000000002,-97.776176,"30.247258000000002,-97.776176"
2260,2260,Oltorf West Station (NB),30.248023999999997,-97.77101400000001,"30.248023999999997,-97.77101400000001"
2261,2261,1401 Oltorf/Thornton,30.246668,-97.76939499999999,"30.246668,-97.76939499999999"
2262,2262,905 Oltorf/ South 5th,30.243370000000002,-97.76355699999999,"30.243370000000002,-97.76355699999999"
2263,2263,539 Oltorf/1st,30.241846999999996,-97.759236,"30.241846999999996,-97.759236"
2266,2266,643 Oltorf/East Side,30.236659999999997,-97.74904000000001,"30.236659999999997,-97.74904000000001"
2271,2271,2503 Oltorf/Pleasant Valley,30.2275,-97.728071,"30.2275,-97.728071"
2273,2273,4527 Oltorf/Wickersham,30.225638,-97.72456600000001,"30.225638,-97.72456600000001"
2274,2274,4809 Oltorf/Sunridge,30.223249,-97.72253,"30.223249,-97.72253"
2275,2275,5413 Oltorf/Alvin Devane,30.21916,-97.71897299999999,"30.21916,-97.71897299999999"
2276,2276,6001 Oltorf/Alvin Devane,30.217484999999996,-97.71550400000001,"30.217484999999996,-97.71550400000001"
2277,2277,6101 Oltorf/Alvin Devane,30.216271999999996,-97.71299,"30.216271999999996,-97.71299"
2279,2279,2421 Grove/Montopolis,30.220578999999997,-97.70705699999999,"30.220578999999997,-97.70705699999999"
2280,2280,Grove/Riverside,30.228216999999997,-97.70704599999999,"30.228216999999997,-97.70704599999999"
2281,2281,6701 Wentworth/Loyola,30.293253000000004,-97.631316,"30.293253000000004,-97.631316"
2282,2282,Loyola/Colony Loop,30.298092999999998,-97.64259200000001,"30.298092999999998,-97.64259200000001"
2287,2287,Colony Park/Loyola,30.298759999999998,-97.64461999999999,"30.298759999999998,-97.64461999999999"
2288,2288,6714 Loyola/Sandshof,30.299246999999998,-97.64583499999999,"30.299246999999998,-97.64583499999999"
2291,2291,5600 Loyola/Millrace,30.303051,-97.657759,"30.303051,-97.657759"
2295,2295,3300 Loyola/Kings Point,30.311577000000003,-97.669075,"30.311577000000003,-97.669075"
2296,2296,2900 Loyola/Tulsa,30.314190999999997,-97.673126,"30.314190999999997,-97.673126"
2298,2298,2400 Loyola/Roanoke,30.318413,-97.678508,"30.318413,-97.678508"
2299,2299,6800 Northeast/Loyola,30.317815000000003,-97.680764,"30.317815000000003,-97.680764"
2300,2300,6502 Northeast/North Hampton,30.315093,-97.681362,"30.315093,-97.681362"
2302,2302,2006 Gaston Place/Wellington,30.312628999999998,-97.688711,"30.312628999999998,-97.688711"
2305,2305,1500 Briarcliff/Belfast,30.315083,-97.694414,"30.315083,-97.694414"
2306,2306,5900 Cameron/Clayton,30.317046,-97.70010400000001,"30.317046,-97.70010400000001"
2307,2307,5700 Cameron/Reinli,30.315549,-97.701918,"30.315549,-97.701918"
2308,2308,5420 Cameron/Corona,30.312939,-97.70529300000001,"30.312939,-97.70529300000001"
2312,2312,4120 IH 35/Clarkson,30.299501,-97.717117,"30.299501,-97.717117"
2321,2321,500 Lamar/5th,30.270539000000003,-97.754587,"30.270539000000003,-97.754587"
2322,2322,220 Lamar/Toomey,30.2631,-97.757876,"30.2631,-97.757876"
2324,2324,Lamar Square Station (SB),30.254493,-97.762566,"30.254493,-97.762566"
2326,2326,2008 Lamar/Hether,30.249289,-97.767901,"30.249289,-97.767901"
2328,2328,Oltorf West Station (SB),30.248028,-97.77175600000001,"30.248028,-97.77175600000001"
2329,2329,2638 Lamar/Dickson,30.245471000000002,-97.779927,"30.245471000000002,-97.779927"
2331,2331,3000 Lamar/Barton Skyway,30.243185999999998,-97.783077,"30.243185999999998,-97.783077"
2334,2334,Brodie Oaks Station (SB),30.236571,-97.792508,"30.236571,-97.792508"
2335,2335,4608 West Gate/Lamar,30.230471,-97.800924,"30.230471,-97.800924"
2337,2337,4900 West Gate/Choctaw Trail,30.227304999999998,-97.802541,"30.227304999999998,-97.802541"
2338,2338,5012 West Gate/Jones,30.225819,-97.803849,"30.225819,-97.803849"
2339,2339,5306 West Gate/Indio,30.223145000000002,-97.805582,"30.223145000000002,-97.805582"
2340,2340,West Gate/Cherry Creek NW Corner,30.219202000000003,-97.80711099999999,"30.219202000000003,-97.80711099999999"
2341,2341,6010 West Gate/Cherry Creek,30.216907,-97.81104599999999,"30.216907,-97.81104599999999"
2342,2342,6402 West Gate/Dillion Hill,30.21316,-97.81506999999999,"30.21316,-97.81506999999999"
2343,2343,West Gate/Deaton Hill NW Corner,30.210896,-97.814594,"30.210896,-97.814594"
2344,2344,6808 West Gate/William Cannon,30.208321,-97.814818,"30.208321,-97.814818"
2349,2349,7700 West Gate/Goldbridge,30.199403999999998,-97.82211600000001,"30.199403999999998,-97.82211600000001"
2357,2357,7405 West Gate/Grennock,30.201921000000002,-97.818402,"30.201921000000002,-97.818402"
2360,2360,West Gate/Berkeley SE Corner,30.208626000000002,-97.814361,"30.208626000000002,-97.814361"
2361,2361,West Gate/Aldford SE Corner,30.210706,-97.814332,"30.210706,-97.814332"
2362,2362,West Gate/Cornish SE Corner,30.212936,-97.814835,"30.212936,-97.814835"
2363,2363,6101 West Gate/Berkett,30.216251,-97.812864,"30.216251,-97.812864"
2364,2364,5907 West Gate/Coatbridge,30.217388,-97.809397,"30.217388,-97.809397"
2367,2367,5101 West Gate/Jones,30.225438,-97.803848,"30.225438,-97.803848"
2370,2370,Brodie Oaks Station (NB),30.23595,-97.792633,"30.23595,-97.792633"
2374,2374,2801 Lamar/Menchaca,30.244014,-97.781577,"30.244014,-97.781577"
2388,2388,Cameron/52nd,30.309887,-97.70885799999999,"30.309887,-97.70885799999999"
2389,2389,Cameron/Broadmoor,30.311881,-97.706361,"30.311881,-97.706361"
2390,2390,Cameron/Corona,30.313184999999997,-97.704679,"30.313184999999997,-97.704679"
2392,2392,5913 Cameron/Briarcliff,30.317126000000002,-97.699679,"30.317126000000002,-97.699679"
2393,2393,Briarcliff/Nassau,30.316544,-97.697807,"30.316544,-97.697807"
2394,2394,1503 Briarcliff/Belfast,30.314906,-97.694362,"30.314906,-97.694362"
2396,2396,1941 Gaston Place/Wellington,30.312416,-97.68864599999999,"30.312416,-97.68864599999999"
2397,2397,6210 North Hampton/Haney,30.312835999999997,-97.683749,"30.312835999999997,-97.683749"
2398,2398,6311 North Hampton/Bristol,30.313627,-97.681795,"30.313627,-97.681795"
2399,2399,6801 Northeast/Lehigh,30.317657,-97.680661,"30.317657,-97.680661"
2400,2400,Loyola/Northeast,30.318399,-97.679735,"30.318399,-97.679735"
2402,2402,2705 Loyola/Willamette,30.315604999999998,-97.67470300000001,"30.315604999999998,-97.67470300000001"
2403,2403,2803 Loyola/Tulsa,30.314189000000002,-97.673348,"30.314189000000002,-97.673348"
2404,2404,3115 Loyola/Tampa Cove,30.312046999999996,-97.670377,"30.312046999999996,-97.670377"
2406,2406,5007 Loyola/Greensboro,30.306534000000003,-97.665444,"30.306534000000003,-97.665444"
2407,2407,5213 Loyola/Bridgewater,30.304699,-97.664109,"30.304699,-97.664109"
2410,2410,6725 Loyola/Sandshof,30.298646999999995,-97.64518100000001,"30.298646999999995,-97.64518100000001"
2416,2416,Loyola/Cielo Vista,30.297837,-97.642748,"30.297837,-97.642748"
2419,2419,Northland/Marilyn,30.334546000000003,-97.751832,"30.334546000000003,-97.751832"
2421,2421,Allandale/Shoalwood,30.33515,-97.7431,"30.33515,-97.7431"
2422,2422,Allandale/Burnet SW Corner,30.334740000000004,-97.74006999999999,"30.334740000000004,-97.74006999999999"
2423,2423,1601 Koenig/Arroyo Seco,30.332402000000002,-97.734922,"30.332402000000002,-97.734922"
2424,2424,1317 Koenig/Woodrow,30.33063,-97.731225,"30.33063,-97.731225"
2425,2425,1205 Koenig/Grover,30.329871,-97.729641,"30.329871,-97.729641"
2427,2427,Koenig/Guadalupe SW Corner,30.323488,-97.724021,"30.323488,-97.724021"
2428,2428,111 Koenig/Avenue F,30.321928000000003,-97.71876400000001,"30.321928000000003,-97.71876400000001"
2432,2432,1101 Camino La Costa/La Posada,30.324081,-97.698549,"30.324081,-97.698549"
2433,2433,Camino La Costa/Atkinson,30.324264000000003,-97.695355,"30.324264000000003,-97.695355"
2436,2436,7605 Cameron/Anderson,30.331463,-97.686986,"30.331463,-97.686986"
2439,2439,1476 Rutherford/Cameron,30.337940000000003,-97.68431,"30.337940000000003,-97.68431"
2441,2441,1601 Rutherford/Cameron,30.33645,-97.68178,"30.33645,-97.68178"
2443,2443,1823 Centre Creek/Centre Park,30.336403999999998,-97.67649300000001,"30.336403999999998,-97.67649300000001"
2451,2451,1706 Centre Creek/Cross Park,30.33623,-97.67771,"30.33623,-97.67771"
2455,2455,8004 Cameron/Rutherford,30.33555,-97.68456,"30.33555,-97.68456"
2456,2456,7606 Cameron/Anderson,30.331229999999998,-97.68753000000001,"30.331229999999998,-97.68753000000001"
2457,2457,7400 Cameron/McKie,30.329209999999996,-97.69045,"30.329209999999996,-97.69045"
2459,2459,1206 Camino La Costa/Grand Canyon,30.324279999999998,-97.69614,"30.324279999999998,-97.69614"
2460,2460,1044 Camino La Costa/Calidad,30.324679999999997,-97.69930500000001,"30.324679999999997,-97.69930500000001"
2465,2465,200 Koenig/Avenue F,30.32198,-97.718379,"30.32198,-97.718379"
2468,2468,1120 Koenig/Grover,30.330053999999997,-97.729724,"30.330053999999997,-97.729724"
2469,2469,1316 Koenig/Woodrow,30.330909000000002,-97.731445,"30.330909000000002,-97.731445"
2472,2472,Koenig/Burnet NE Corner,30.334822999999997,-97.739641,"30.334822999999997,-97.739641"
2473,2473,Allandale/Woodview,30.33547,-97.74381,"30.33547,-97.74381"
2474,2474,2608 Allandale/Cary,30.335520000000002,-97.74691999999999,"30.335520000000002,-97.74691999999999"
2475,2475,Northland/Bullard,30.334559999999996,-97.75026,"30.334559999999996,-97.75026"
2476,2476,Northland/Balcones,30.337707,-97.75675,"30.337707,-97.75675"
2478,2478,1901 Blue Meadow/Bluff Springs,30.183426,-97.768629,"30.183426,-97.768629"
2482,2482,6805 Meadow Lake/Bucks Run,30.179042,-97.75308299999999,"30.179042,-97.75308299999999"
2483,2483,6601 Meadow Lake/William Cannon,30.180708000000003,-97.75027800000001,"30.180708000000003,-97.75027800000001"
2489,2489,Stassney/Spoke,30.193534000000003,-97.75551999999999,"30.193534000000003,-97.75551999999999"
2490,2490,2006 Stassney/Ponciana,30.194941999999998,-97.757865,"30.194941999999998,-97.757865"
2491,2491,1706 Stassney/IH 35,30.197437,-97.76164399999999,"30.197437,-97.76164399999999"
2493,2493,3107 Red River/32nd,30.290665,-97.727112,"30.290665,-97.727112"
2497,2497,2005 Stassney/Ponciana,30.195032,-97.758297,"30.195032,-97.758297"
2499,2499,2433 Stassney/Palo Blanco,30.193568,-97.749836,"30.193568,-97.749836"
2504,2504,6608 Meadow Lake/William Cannon,30.180618,-97.750504,"30.180618,-97.750504"
2505,2505,6806 Meadow Lake/Bucks Run,30.179146999999997,-97.753231,"30.179146999999997,-97.753231"
2507,2507,4412 Blue Meadow/Deep Circle,30.179721999999998,-97.758433,"30.179721999999998,-97.758433"
2508,2508,2418 Blue Meadow/Bitteroot,30.1804,-97.761152,"30.1804,-97.761152"
2511,2511,1900 Blue Meadow/Bluff Springs,30.183658,-97.768765,"30.183658,-97.768765"
2518,2518,300 15th/San Jacinto,30.276325,-97.736917,"30.276325,-97.736917"
2530,2530,Rundberg/Parkfield,30.36768,-97.70662,"30.36768,-97.70662"
2534,2534,Quail Valley/Quail Hutch,30.377879999999998,-97.70795,"30.377879999999998,-97.70795"
2535,2535,1612 Mearns Meadow/Quail Valley,30.378890000000002,-97.70653,"30.378890000000002,-97.70653"
2536,2536,1720 Mearns Meadow/Robinwood,30.38059,-97.70824,"30.38059,-97.70824"
2537,2537,1906 Mearns Meadow/Little Pebble,30.38301,-97.71094000000001,"30.38301,-97.71094000000001"
2539,2539,10623 Metric/Denton,30.385965000000002,-97.711828,"30.385965000000002,-97.711828"
2540,2540,11001 Metric/Kramer,30.389321999999996,-97.709956,"30.389321999999996,-97.709956"
2541,2541,11301 Metric/Braker,30.392761,-97.707868,"30.392761,-97.707868"
2544,2544,12195 Metric/Cedar Bend,30.408110999999998,-97.696895,"30.408110999999998,-97.696895"
2545,2545,12301 Lamplight Village/Metric,30.411106,-97.695672,"30.411106,-97.695672"
2564,2564,12460 Lamplight Village/Alderbrook,30.415114000000003,-97.6965,"30.415114000000003,-97.6965"
2566,2566,Lamplight Village/Metric NW Corner,30.41085,-97.695734,"30.41085,-97.695734"
2567,2567,12166 Metric/Cedar Bend,30.407778999999998,-97.69727900000001,"30.407778999999998,-97.69727900000001"
2568,2568,11510 Metric/Stonehollow,30.39488,-97.706822,"30.39488,-97.706822"
2569,2569,11212 Metric/Braker,30.391795000000002,-97.70878499999999,"30.391795000000002,-97.70878499999999"
2572,2572,Metric/Boyer,30.3836,-97.71304,"30.3836,-97.71304"
2573,2573,1907 Mearns Meadow/Little Pebble,30.38291,-97.7111,"30.38291,-97.7111"
2575,2575,1611 Mearns Meadow/Quail Valley,30.37867,-97.70659,"30.37867,-97.70659"
2578,2578,1601 Rutland/Mountain Quail,30.371209000000004,-97.709678,"30.371209000000004,-97.709678"
2581,2581,1129 Rundberg/Quail Wood,30.366365000000002,-97.70407,"30.366365000000002,-97.70407"
2582,2582,Rundberg/Collinfield,30.36529,-97.701797,"30.36529,-97.701797"
2583,2583,831 Rundberg/Quail Field,30.3637,-97.69848,"30.3637,-97.69848"
2585,2585,Rundberg/Slayton,30.361569,-97.694541,"30.361569,-97.694541"
2595,2595,6600 Silvermine/SH 71,30.246586999999998,-97.888607,"30.246586999999998,-97.888607"
2597,2597,Oak Hill Plaza,30.234965999999996,-97.87694,"30.234965999999996,-97.87694"
2605,2605,517 Lavaca/6th,30.268613000000002,-97.745114,"30.268613000000002,-97.745114"
2606,2606,Austin History Center Station (NB),30.27042,-97.74444,"30.27042,-97.74444"
2607,2607,Lavaca/10th,30.272281,-97.743773,"30.272281,-97.743773"
2611,2611,Austin History Center Station (SB),30.271057,-97.745655,"30.271057,-97.745655"
2612,2612,500 Guadalupe/5th,30.268253,-97.74669,"30.268253,-97.74669"
2613,2613,Guadalupe/4th,30.267331,-97.747037,"30.267331,-97.747037"
2617,2617,6132 US 290/Parkwood,30.235661999999998,-97.855267,"30.235661999999998,-97.855267"
2618,2618,Fenton/Scenic Brook,30.235646000000003,-97.898749,"30.235646000000003,-97.898749"
2623,2623,5500 S 1st/Stassney,30.208753,-97.78142,"30.208753,-97.78142"
2626,2626,S. 1st/Mulberry,30.193782000000002,-97.79003399999999,"30.193782000000002,-97.79003399999999"
2627,2627,7230 S 1st/Meadow Lea,30.190183,-97.79057,"30.190183,-97.79057"
2628,2628,7816 S 1st/Dittmar,30.184112,-97.792603,"30.184112,-97.792603"
2629,2629,8116 S 1st/Mairo,30.181296000000003,-97.794775,"30.181296000000003,-97.794775"
2636,2636,8201 S 1st/Mairo,30.180906,-97.794841,"30.180906,-97.794841"
2638,2638,7301 S 1st/Meadow Lea,30.189842,-97.790405,"30.189842,-97.790405"
2639,2639,6907 S 1st/Thelma,30.194695,-97.78927,"30.194695,-97.78927"
2640,2640,6611 1st/William Cannon,30.197336,-97.787836,"30.197336,-97.787836"
2641,2641,5603 S 1st/Stassney,30.208270000000002,-97.78150699999999,"30.208270000000002,-97.78150699999999"
2643,2643,Lavaca/4th,30.266689000000003,-97.745863,"30.266689000000003,-97.745863"
2649,2649,220 6th/Lavaca,30.268793,-97.745075,"30.268793,-97.745075"
2650,2650,3608 Menchaca/Valley View,30.235222999999998,-97.784979,"30.235222999999998,-97.784979"
2652,2652,Seminary Ridge/Manassas,30.198811,-97.81952,"30.198811,-97.81952"
2653,2653,Seminary Ridge/Shiloh,30.195669,-97.821554,"30.195669,-97.821554"
2654,2654,Seminary Ridge/Sweet Clover,30.1925,-97.823745,"30.1925,-97.823745"
2656,2656,Guidepost/Huebinger Pass,30.188354999999998,-97.827991,"30.188354999999998,-97.827991"
2657,2657,Curlew/Guidepost,30.188516999999997,-97.829121,"30.188516999999997,-97.829121"
2660,2660,9412 Curlew/Crownspoint,30.183032,-97.832409,"30.183032,-97.832409"
2661,2661,9614 Curlew/Monarch,30.180475,-97.833345,"30.180475,-97.833345"
2663,2663,Slaughter/Gail,30.176005,-97.83110699999999,"30.176005,-97.83110699999999"
2666,2666,Slaughter/Briar Ridge,30.176221999999996,-97.830985,"30.176221999999996,-97.830985"
2667,2667,9901 Curlew/Slaughter,30.177128999999997,-97.833854,"30.177128999999997,-97.833854"
2669,2669,Curlew/Crownspoint,30.183117,-97.832175,"30.183117,-97.832175"
2673,2673,Guidepost/Marsh,30.188075,-97.827667,"30.188075,-97.827667"
2674,2674,8609 Leo/Davis,30.190177000000002,-97.825412,"30.190177000000002,-97.825412"
2675,2675,8503 Seminary Ridge/Cameron Loop,30.191540000000003,-97.824587,"30.191540000000003,-97.824587"
2678,2678,7703 Manassas/Whispering Oaks,30.199565000000003,-97.82012399999999,"30.199565000000003,-97.82012399999999"
2679,2679,7203 West Gate/Bryonhall,30.204834,-97.816514,"30.204834,-97.816514"
2680,2680,6905 West Gate/William Cannon,30.206976,-97.81541800000001,"30.206976,-97.81541800000001"
2681,2681,Menchaca/William Cannon NE Corner,30.203378000000004,-97.806692,"30.203378000000004,-97.806692"
2726,2726,9828 Great Hills/Research,30.394273,-97.748666,"30.394273,-97.748666"
2727,2727,Pavilion Park and Ride,30.426817,-97.757476,"30.426817,-97.757476"
2732,2732,9829 Great Hills/Jollyville,30.394037,-97.74835,"30.394037,-97.74835"
2738,2738,Capitol Station (SB),30.275021999999996,-97.744169,"30.275021999999996,-97.744169"
2751,2751,ACC Northridge,30.400818,-97.703014,"30.400818,-97.703014"
2753,2753,Burnet/Mopac,30.402715999999998,-97.71756500000001,"30.402715999999998,-97.71756500000001"
2754,2754,11100 Burnet/Kramer,30.395964000000003,-97.72032,"30.395964000000003,-97.72032"
2757,2757,810 Dean Keeton/Hampton,30.289184000000002,-97.730013,"30.289184000000002,-97.730013"
2761,2761,500 Martin Luther King/Red River,30.279307,-97.73295,"30.279307,-97.73295"
2767,2767,Vic Mathias/Auditorium Shores Station (NB),30.259459000000003,-97.748994,"30.259459000000003,-97.748994"
2768,2768,M L King/Trinity (Midblock),30.279262,-97.733535,"30.279262,-97.733535"
2780,2780,21st/Whitis (Midblock),30.283844000000002,-97.741124,"30.283844000000002,-97.741124"
2803,2803,500 Pleasant Valley/5th,30.257216999999997,-97.710911,"30.257216999999997,-97.710911"
2810,2810,East Austin Multi-Center,30.259425,-97.728034,"30.259425,-97.728034"
2811,2811,Lakeside Apartments,30.262025,-97.741105,"30.262025,-97.741105"
2812,2812,1117 Cesar Chavez/Waller,30.259919,-97.73285600000001,"30.259919,-97.73285600000001"
2821,2821,Rundberg Station (NB),30.362616999999997,-97.697133,"30.362616999999997,-97.697133"
2823,2823,Park/Crestview Jonestown,30.492932,-97.92296,"30.492932,-97.92296"
2825,2825,8032 Bar K Ranch (Lago Vista HS),30.48075,-97.97827099999999,"30.48075,-97.97827099999999"
2827,2827,Crossbow/Paseo de Vaca,30.47157,-97.9911,"30.47157,-97.9911"
2829,2829,8033 Bar K Ranch (Lago Vista HS),30.480667999999998,-97.978167,"30.480667999999998,-97.978167"
2830,2830,Dawn/Thunderbird,30.453482,-97.987134,"30.453482,-97.987134"
2831,2831,Park/Crestview Jonestown,30.492834999999996,-97.92283,"30.492834999999996,-97.92283"
2832,2832,Bee Street/Main Street,30.502724,-97.914549,"30.502724,-97.914549"
2856,2856,1703 12th/Leona,30.273471999999998,-97.721367,"30.273471999999998,-97.721367"
2863,2863,Cherrywood/Edgewood,30.287809999999997,-97.716078,"30.287809999999997,-97.716078"
2864,2864,3719 Cherrywood/38th Half,30.291490000000003,-97.71368000000001,"30.291490000000003,-97.71368000000001"
2870,2870,6717 Cameron/Athletic,30.32283,-97.69413,"30.32283,-97.69413"
2871,2871,7068 Cameron/St Johns,30.325625,-97.692766,"30.325625,-97.692766"
2872,2872,800 St Johns/IH 35,30.332335999999998,-97.702985,"30.332335999999998,-97.702985"
2874,2874,514 St Johns/Guadalupe,30.337813,-97.714297,"30.337813,-97.714297"
2877,2877,6904 Airport/Lamar,30.336202,-97.71824699999999,"30.336202,-97.71824699999999"
2878,2878,7135 Lamar/St Johns,30.339261999999998,-97.717782,"30.339261999999998,-97.717782"
2880,2880,601 St Johns/Guadalupe,30.337809999999998,-97.714621,"30.337809999999998,-97.714621"
2886,2886,1011 St Johns/Bethune,30.3301,-97.69847,"30.3301,-97.69847"
2908,2908,7925 Rockwood/Ashdale,30.360488,-97.735877,"30.360488,-97.735877"
2913,2913,3400 Lamar/34th,30.30282,-97.74476800000001,"30.30282,-97.74476800000001"
2917,2917,801 William Cannon/Cooper,30.197943,-97.790054,"30.197943,-97.790054"
2918,2918,701 William Cannon/1st,30.197073,-97.788053,"30.197073,-97.788053"
2933,2933,Slaughter/United Kingdom,30.174107,-97.809095,"30.174107,-97.809095"
2934,2934,Slaughter/Texas Oaks,30.174,-97.81487299999999,"30.174,-97.81487299999999"
2935,2935,1312 Slaughter/Bilbrook,30.173971,-97.816864,"30.173971,-97.816864"
2938,2938,HEB Slaughter/Menchaca,30.173811999999998,-97.82592199999999,"30.173811999999998,-97.82592199999999"
2974,2974,1401 Slaughter/Bilbrook,30.173682,-97.817308,"30.173682,-97.817308"
2975,2975,1213 Slaughter/David Moore,30.173728999999998,-97.81402,"30.173728999999998,-97.81402"
2976,2976,1001 Slaughter/United Kingdom,30.173803000000003,-97.80945,"30.173803000000003,-97.80945"
3010,3010,Braker/Swearingen,30.387659000000003,-97.69841,"30.387659000000003,-97.69841"
3011,3011,1612 Braker/Bittern Hollow,30.389344,-97.701332,"30.389344,-97.701332"
3012,3012,1900 Braker/Metric,30.391553000000002,-97.70610400000001,"30.391553000000002,-97.70610400000001"
3014,3014,Braker/IBM,30.392667,-97.72595799999999,"30.392667,-97.72595799999999"
3016,3016,10050 Great Hills/Research,30.393703000000002,-97.743884,"30.393703000000002,-97.743884"
3017,3017,4001 Braker/Stonelake,30.397315999999996,-97.736242,"30.397315999999996,-97.736242"
3020,3020,Braker/Burnet SW Corner,30.391127,-97.722228,"30.391127,-97.722228"
3021,3021,2001 Braker/Metric,30.392384999999997,-97.708773,"30.392384999999997,-97.708773"
3022,3022,1613 Braker/Bittern Hollow,30.389101,-97.701391,"30.389101,-97.701391"
3023,3023,Braker/Milbanks,30.387124,-97.697959,"30.387124,-97.697959"
3033,3033,1624 Ohlen/Payton Gin,30.363709999999998,-97.71609000000001,"30.363709999999998,-97.71609000000001"
3036,3036,Metric/Sunhillow,30.399286,-97.703643,"30.399286,-97.703643"
3041,3041,Metric/Lamplight,30.410866,-97.69539300000001,"30.410866,-97.69539300000001"
3045,3045,2501 Parmer/Tomanet,30.418591999999997,-97.70186700000001,"30.418591999999997,-97.70186700000001"
3060,3060,Burnet/Ashdale,30.358333000000002,-97.730386,"30.358333000000002,-97.730386"
3063,3063,Burnet/Teakwood,30.360508000000003,-97.729588,"30.360508000000003,-97.729588"
3075,3075,9037 Lamar/Cooper,30.360265000000002,-97.698477,"30.360265000000002,-97.698477"
3080,3080,11213 Lamar/Braker,30.38168,-97.686359,"30.38168,-97.686359"
3081,3081,315 Braker/Hornsby,30.379967999999998,-97.6833,"30.379967999999998,-97.6833"
3082,3082,751 Braker/Middle Fiskville,30.37763,-97.678405,"30.37763,-97.678405"
3083,3083,833 Braker/Joseph Clayton,30.376193,-97.674267,"30.376193,-97.674267"
3087,3087,11819 Shropshire/Rotherham,30.378569,-97.659881,"30.378569,-97.659881"
3088,3088,Shropshire/Tobler,30.380906,-97.661208,"30.380906,-97.661208"
3089,3089,Thompkins/Tuffit,30.384103000000003,-97.66232,"30.384103000000003,-97.66232"
3090,3090,Thompkins/Peggotty,30.387545000000003,-97.660983,"30.387545000000003,-97.660983"
3091,3091,12215 Thompkins/Yager,30.389819,-97.65961,"30.389819,-97.65961"
3100,3100,Stassney/Hummingbird,30.207126000000002,-97.77859000000001,"30.207126000000002,-97.77859000000001"
3102,3102,1026 Stassney/Emerald Forest,30.210778,-97.786836,"30.210778,-97.786836"
3103,3103,1400 Stassney/Radam,30.212318,-97.79095600000001,"30.212318,-97.79095600000001"
3105,3105,Stassney/Cork Path,30.217002,-97.799908,"30.217002,-97.799908"
3106,3106,2400 Stassney/Fernview,30.218327000000002,-97.803096,"30.218327000000002,-97.803096"
3107,3107,West Gate/Indio,30.222838,-97.805563,"30.222838,-97.805563"
3109,3109,2313 Stassney/Fernview,30.218140000000002,-97.80326,"30.218140000000002,-97.80326"
3110,3110,2035 Stassney (Cherry Creek Plaza),30.216159,-97.799017,"30.216159,-97.799017"
3112,3112,1701 Stassney/Rose Hill,30.213644,-97.794264,"30.213644,-97.794264"
3113,3113,1401 Stassney/Radam,30.212061,-97.790959,"30.212061,-97.790959"
3114,3114,1101 Stassney/Emerald Forest,30.210625,-97.78725899999999,"30.210625,-97.78725899999999"
3116,3116,405 W Stassney/Hummingbird,30.207058,-97.77896700000001,"30.207058,-97.77896700000001"
3120,3120,2301 Ohlen/Bowling Green,30.362571000000003,-97.728237,"30.362571000000003,-97.728237"
3123,3123,Ohlen/Contour,30.362820000000003,-97.71887,"30.362820000000003,-97.71887"
3125,3125,1649 Ohlen/Research,30.363570000000003,-97.71592,"30.363570000000003,-97.71592"
3127,3127,Northgate/Rundberg,30.371518,-97.715819,"30.371518,-97.715819"
3128,3128,1709 Rundberg/Singing Quail,30.370161,-97.712704,"30.370161,-97.712704"
3129,3129,Rundberg/Hunters Trace,30.368872999999997,-97.71005699999999,"30.368872999999997,-97.71005699999999"
3130,3130,Parkfield/Rundberg,30.367379999999997,-97.70647,"30.367379999999997,-97.70647"
3134,3134,1403 Rundberg/Marlborough,30.351563,-97.677494,"30.351563,-97.677494"
3135,3135,Rundberg/Cameron,30.349891999999997,-97.676412,"30.349891999999997,-97.676412"
3136,3136,9100 Cameron/Rundberg,30.347161,-97.677226,"30.347161,-97.677226"
3144,3144,Cameron/Ferguson,30.346131,-97.677249,"30.346131,-97.677249"
3145,3145,Rundberg/Marlborough,30.351814,-97.67747,"30.351814,-97.67747"
3147,3147,400 Rundberg/Slayton,30.362340000000003,-97.69526,"30.362340000000003,-97.69526"
3148,3148,832 Rundberg/Lamar,30.363939000000002,-97.698486,"30.363939000000002,-97.698486"
3149,3149,Rundberg/Mearns Meadow,30.364971999999998,-97.700675,"30.364971999999998,-97.700675"
3150,3150,1130 Rundberg/Quail Wood,30.36657,-97.70404,"30.36657,-97.70404"
3152,3152,Rundberg/Mountain Quail,30.369253999999998,-97.710359,"30.369253999999998,-97.710359"
3155,3155,9120 Northgate/Rundberg,30.370738,-97.71650799999999,"30.370738,-97.71650799999999"
3159,3159,2306 Ohlen/Bowling Green,30.362828000000004,-97.72843,"30.362828000000004,-97.72843"
3160,3160,8118 Burnet/Steck,30.360468,-97.729812,"30.360468,-97.729812"
3169,3169,200 William Cannon/Starstreak,30.193894,-97.780466,"30.193894,-97.780466"
3170,3170,William Cannon/Sunstrip,30.19479,-97.78349,"30.19479,-97.78349"
3172,3172,William Cannon/1st,30.197499,-97.78834499999999,"30.197499,-97.78834499999999"
3173,3173,120 William Cannon/Mount Carrell,30.199561,-97.795776,"30.199561,-97.795776"
3174,3174,William Cannon/Woodhue,30.200740999999997,-97.79945,"30.200740999999997,-97.79945"
3175,3175,1900 William Cannon/Cannonleague,30.202551,-97.80479,"30.202551,-97.80479"
3177,3177,William Cannon/Shier,30.203521999999996,-97.808472,"30.203521999999996,-97.808472"
3178,3178,2810 William Cannon/Deaton Hill,30.208170000000003,-97.817734,"30.208170000000003,-97.817734"
3179,3179,William Cannon/Stage Coach,30.211536,-97.82521700000001,"30.211536,-97.82521700000001"
3180,3180,3316 William Cannon/Lost Valley,30.212637,-97.827439,"30.212637,-97.827439"
3182,3182,7000 Brodie/Bannockburn,30.213001000000002,-97.83105,"30.213001000000002,-97.83105"
3183,3183,7600 Brodie/Harpers Ferry,30.207183,-97.834986,"30.207183,-97.834986"
3185,3185,3706 Eskew/Croftwood,30.205019,-97.840085,"30.205019,-97.840085"
3186,3186,3910 Eskew/Wakefield,30.205871999999996,-97.843088,"30.205871999999996,-97.843088"
3187,3187,4200 Eskew/Mauai,30.207821000000003,-97.846452,"30.207821000000003,-97.846452"
3188,3188,4408 Eskew/Copano,30.209421999999996,-97.848776,"30.209421999999996,-97.848776"
3193,3193,Convict Hill/Brush Country,30.217449,-97.846951,"30.217449,-97.846951"
3196,3196,5616 Convict Hill/Wagon Train,30.222453,-97.861693,"30.222453,-97.861693"
3197,3197,Convict Hill/John Blocker,30.223817999999998,-97.864469,"30.223817999999998,-97.864469"
3198,3198,6016 Convict Hill/Oliver Loving,30.224997,-97.86685899999999,"30.224997,-97.86685899999999"
3205,3205,6115 Convict Hill/Oliver Loving,30.224964,-97.86716700000001,"30.224964,-97.86716700000001"
3206,3206,5801 Convict Hill/Cannon Mountain,30.223318,-97.863788,"30.223318,-97.863788"
3207,3207,5701 Convict Hill/Wagon Train,30.222490999999998,-97.86205600000001,"30.222490999999998,-97.86205600000001"
3208,3208,5401 Convict Hill/Beckett,30.220475,-97.85798,"30.220475,-97.85798"
3212,3212,7704 Copano/Copperas,30.213340999999996,-97.850551,"30.213340999999996,-97.850551"
3213,3213,7814 Copano/Sarasota,30.210949,-97.84958,"30.210949,-97.84958"
3214,3214,4403 Eskew/Copano,30.209294,-97.848453,"30.209294,-97.848453"
3215,3215,Eskew/Mauai,30.207733,-97.846601,"30.207733,-97.846601"
3216,3216,3911 Eskew/Tree House,30.205755,-97.843159,"30.205755,-97.843159"
3217,3217,3709 Eskew/Croftwood,30.204891999999997,-97.840165,"30.204891999999997,-97.840165"
3220,3220,7613 Brodie/Harpers Ferry,30.206736,-97.834965,"30.206736,-97.834965"
3221,3221,7201 Brodie/Convict Hill,30.211188,-97.83185300000001,"30.211188,-97.83185300000001"
3223,3223,3421 William Cannon/Brodie,30.213229,-97.829481,"30.213229,-97.829481"
3224,3224,3207 William Cannon/Stagecoach,30.210944,-97.82455,"30.210944,-97.82455"
3226,3226,2701 William Cannon/West Gate,30.207196999999997,-97.81577800000001,"30.207196999999997,-97.81577800000001"
3228,3228,1945 William Cannon/Menchaca,30.202716,-97.80623299999999,"30.202716,-97.80623299999999"
3229,3229,1401 William Cannon/Woodhue,30.200295,-97.799002,"30.200295,-97.799002"
3230,3230,1107 William Cannon/Mount Carrell,30.199251,-97.79519599999999,"30.199251,-97.79519599999999"
3231,3231,1011 William Cannon/Emerald Forest,30.199075,-97.793338,"30.199075,-97.793338"
3234,3234,401 William Cannon/Bill Hughes,30.195674,-97.785337,"30.195674,-97.785337"
3238,3238,Travis Correctional Facility,30.197840000000003,-97.645546,"30.197840000000003,-97.645546"
3240,3240,3103 SH 71/Cheviot,30.205035,-97.642589,"30.205035,-97.642589"
3241,3241,2777 SH 71/Golf Course,30.210895,-97.654067,"30.210895,-97.654067"
3247,3247,7200 Riverside/Yellow Jacket,30.221045,-97.69468,"30.221045,-97.69468"
3248,3248,6810 Riverside/Frontier Valley,30.222831,-97.698094,"30.222831,-97.698094"
3249,3249,6600 Riverside/Vargas,30.224038,-97.700825,"30.224038,-97.700825"
3253,3253,Montopolis/Santos,30.22867,-97.700989,"30.22867,-97.700989"
3254,3254,1207 Montopolis/Larch,30.232656,-97.698459,"30.232656,-97.698459"
3255,3255,911 Montopolis/Cirulo de Amistad,30.234794,-97.697069,"30.234794,-97.697069"
3256,3256,Montopolis/Monsanto,30.238996000000004,-97.694369,"30.238996000000004,-97.694369"
3259,3259,821 Airport/Glissman,30.256542,-97.69284,"30.256542,-97.69284"
3260,3260,1123 Airport/Springdale,30.26537,-97.69532,"30.26537,-97.69532"
3261,3261,1135 Airport/Goodwin,30.26848,-97.69626,"30.26848,-97.69626"
3262,3262,1149 Airport/Oak Springs,30.27335,-97.69773,"30.27335,-97.69773"
3266,3266,1835 Airport/Martin Luther King,30.282339,-97.703722,"30.282339,-97.703722"
